[
  {
    "place_id": "ChIJl0lOLJvlTzUR6dDVKs_Bs-E",
    "name": "松山市役所 地下1F 食堂",
    "lat": 33.8392116,
    "lng": 132.7655786,
    "types": [
      "restaurant",
      "food",
      "point_of_interest",
      "establishment"
    ],
    "google_url": "https://www.google.com/maps/place/?q=place_id:ChIJl0lOLJvlTzUR6dDVKs_Bs-E",
    "seen_from": [
      {
        "rep_index": 0,
        "origin_type": "urban",
        "lat": 33.8395188,
        "lon": 132.7653521,
        "radius": 150,
        "type": "restaurant"
      }
    ]
  },
  {
    "place_id": "ChIJ8b0PAADlTzURdA-73DKoZO0",
    "name": "狼煙",
    "lat": 33.8382708,
    "lng": 132.7653575,
    "types": [
      "restaurant",
      "food",
      "point_of_interest",
      "establishment"
    ],
    "google_url": "https://www.google.com/maps/place/?q=place_id:ChIJ8b0PAADlTzURdA-73DKoZO0",
    "seen_from": [
      {
        "rep_index": 0,
        "origin_type": "urban",
        "lat": 33.8395188,
        "lon": 132.7653521,
        "radius": 150,
        "type": "restaurant"
      }
    ]
  },
  {
    "place_id": "ChIJgfFujTzlTzUROLwWcWi3pBk",
    "name": "HINOKI BLUES",
    "lat": 33.8382411,
    "lng": 132.7657648,
    "types": [
      "restaurant",
      "food",
      "point_of_interest",
      "establishment"
    ],
    "google_url": "https://www.google.com/maps/place/?q=place_id:ChIJgfFujTzlTzUROLwWcWi3pBk",
    "seen_from": [
      {
        "rep_index": 0,
        "origin_type": "urban",
        "lat": 33.8395188,
        "lon": 132.7653521,
        "radius": 150,
        "type": "restaurant"
      }
    ]
  },
  {
    "place_id": "ChIJF2ZvO43lTzURvd9IWS89RQ0",
    "name": "カフェごはん菜さい",
    "lat": 33.83822600000001,
    "lng": 132.7653533,
    "types": [
      "cafe",
      "food",
      "point_of_interest",
      "establishment"
    ],
    "google_url": "https://www.google.com/maps/place/?q=place_id:ChIJF2ZvO43lTzURvd9IWS89RQ0",
    "seen_from": [
      {
        "rep_index": 0,
        "origin_type": "urban",
        "lat": 33.8395188,
        "lon": 132.7653521,
        "radius": 150,
        "type": "cafe"
      }
    ]
  },
  {
    "place_id": "ChIJj8mjARVjTzURUL38D-9HSg4",
    "name": "寄合茶屋",
    "lat": 33.2893859,
    "lng": 132.6061737,
    "types": [
      "restaurant",
      "food",
      "point_of_interest",
      "establishment"
    ],
    "google_url": "https://www.google.com/maps/place/?q=place_id:ChIJj8mjARVjTzURUL38D-9HSg4",
    "seen_from": [
      {
        "rep_index": 6,
        "origin_type": "urban",
        "lat": 33.2888721,
        "lon": 132.6057654,
        "radius": 150,
        "type": "restaurant"
      }
    ]
  },
  {
    "place_id": "ChIJrQVM2hplTzUR8zW8EEx_ryQ",
    "name": "藤川旅館",
    "lat": 33.2554106,
    "lng": 132.6762334,
    "types": [
      "restaurant",
      "food",
      "point_of_interest",
      "establishment"
    ],
    "google_url": "https://www.google.com/maps/place/?q=place_id:ChIJrQVM2hplTzUR8zW8EEx_ryQ",
    "seen_from": [
      {
        "rep_index": 8,
        "origin_type": "urban",
        "lat": 33.2556258,
        "lon": 132.676551,
        "radius": 150,
        "type": "restaurant"
      }
    ]
  },
  {
    "place_id": "ChIJZVEF5BtlTzURbhKtPk1rzZU",
    "name": "鬼の酒場",
    "lat": 33.25667680000001,
    "lng": 132.6763655,
    "types": [
      "restaurant",
      "food",
      "point_of_interest",
      "establishment"
    ],
    "google_url": "https://www.google.com/maps/place/?q=place_id:ChIJZVEF5BtlTzURbhKtPk1rzZU",
    "seen_from": [
      {
        "rep_index": 8,
        "origin_type": "urban",
        "lat": 33.2556258,
        "lon": 132.676551,
        "radius": 150,
        "type": "restaurant"
      }
    ]
  },
  {
    "place_id": "ChIJ80guYRplTzURu9g2LCmzDTg",
    "name": "春廼家",
    "lat": 33.2567737,
    "lng": 132.6772376,
    "types": [
      "restaurant",
      "food",
      "point_of_interest",
      "establishment"
    ],
    "google_url": "https://www.google.com/maps/place/?q=place_id:ChIJ80guYRplTzURu9g2LCmzDTg",
    "seen_from": [
      {
        "rep_index": 8,
        "origin_type": "urban",
        "lat": 33.2556258,
        "lon": 132.676551,
        "radius": 150,
        "type": "restaurant"
      }
    ]
  },
  {
    "place_id": "ChIJ9dSkAaJlTzUR7jmHU8q7GSE",
    "name": "サムコッペ",
    "lat": 33.2564458,
    "lng": 132.675891,
    "types": [
      "cafe",
      "store",
      "food",
      "point_of_interest",
      "establishment"
    ],
    "google_url": "https://www.google.com/maps/place/?q=place_id:ChIJ9dSkAaJlTzUR7jmHU8q7GSE",
    "seen_from": [
      {
        "rep_index": 8,
        "origin_type": "urban",
        "lat": 33.2556258,
        "lon": 132.676551,
        "radius": 150,
        "type": "cafe"
      }
    ]
  },
  {
    "place_id": "ChIJVXEqtIorUDUR1xks7LW_X_I",
    "name": "わいん食堂 カゴヤ 10taro (ジュタロ)",
    "lat": 33.89715449999999,
    "lng": 133.116865,
    "types": [
      "restaurant",
      "food",
      "point_of_interest",
      "establishment"
    ],
    "google_url": "https://www.google.com/maps/place/?q=place_id:ChIJVXEqtIorUDUR1xks7LW_X_I",
    "seen_from": [
      {
        "rep_index": 12,
        "origin_type": "urban",
        "lat": 33.897657,
        "lon": 133.1167046,
        "radius": 150,
        "type": "restaurant"
      },
      {
        "rep_index": 661,
        "origin_type": "roadside",
        "lat": 33.8972503,
        "lon": 133.1164397,
        "radius": 300,
        "type": "restaurant"
      }
    ]
  },
  {
    "place_id": "ChIJ7Vh9J_UrUDURtD-5Bk7pkic",
    "name": "マルブン 小松本店",
    "lat": 33.89724330000001,
    "lng": 133.1164829,
    "types": [
      "restaurant",
      "food",
      "point_of_interest",
      "establishment"
    ],
    "google_url": "https://www.google.com/maps/place/?q=place_id:ChIJ7Vh9J_UrUDURtD-5Bk7pkic",
    "seen_from": [
      {
        "rep_index": 12,
        "origin_type": "urban",
        "lat": 33.897657,
        "lon": 133.1167046,
        "radius": 150,
        "type": "restaurant"
      },
      {
        "rep_index": 661,
        "origin_type": "roadside",
        "lat": 33.8972503,
        "lon": 133.1164397,
        "radius": 300,
        "type": "restaurant"
      }
    ]
  },
  {
    "place_id": "ChIJWf4ZtIorUDURFcNz59tjfSI",
    "name": "ＫアンドＹ",
    "lat": 33.8972677,
    "lng": 133.11676,
    "types": [
      "meal_takeaway",
      "restaurant",
      "food",
      "point_of_interest",
      "establishment"
    ],
    "google_url": "https://www.google.com/maps/place/?q=place_id:ChIJWf4ZtIorUDURFcNz59tjfSI",
    "seen_from": [
      {
        "rep_index": 12,
        "origin_type": "urban",
        "lat": 33.897657,
        "lon": 133.1167046,
        "radius": 150,
        "type": "restaurant"
      },
      {
        "rep_index": 661,
        "origin_type": "roadside",
        "lat": 33.8972503,
        "lon": 133.1164397,
        "radius": 300,
        "type": "restaurant"
      }
    ]
  },
  {
    "place_id": "ChIJB3kn4vwrUDURaoLkDO1AoG0",
    "name": "コマロジ ウラノ ジュタロ",
    "lat": 33.897166,
    "lng": 133.1168462,
    "types": [
      "restaurant",
      "food",
      "point_of_interest",
      "establishment"
    ],
    "google_url": "https://www.google.com/maps/place/?q=place_id:ChIJB3kn4vwrUDURaoLkDO1AoG0",
    "seen_from": [
      {
        "rep_index": 12,
        "origin_type": "urban",
        "lat": 33.897657,
        "lon": 133.1167046,
        "radius": 150,
        "type": "restaurant"
      },
      {
        "rep_index": 661,
        "origin_type": "roadside",
        "lat": 33.8972503,
        "lon": 133.1164397,
        "radius": 300,
        "type": "restaurant"
      }
    ]
  },
  {
    "place_id": "ChIJ_woUyIorUDURwU057hWaY4U",
    "name": "酒菜家 あづまや",
    "lat": 33.896809,
    "lng": 133.117106,
    "types": [
      "restaurant",
      "food",
      "point_of_interest",
      "establishment"
    ],
    "google_url": "https://www.google.com/maps/place/?q=place_id:ChIJ_woUyIorUDURwU057hWaY4U",
    "seen_from": [
      {
        "rep_index": 12,
        "origin_type": "urban",
        "lat": 33.897657,
        "lon": 133.1167046,
        "radius": 150,
        "type": "restaurant"
      },
      {
        "rep_index": 661,
        "origin_type": "roadside",
        "lat": 33.8972503,
        "lon": 133.1164397,
        "radius": 300,
        "type": "restaurant"
      }
    ]
  },
  {
    "place_id": "ChIJGWEwYFbdTzUR0yyJfbbgbC0",
    "name": "魚政浜田商店",
    "lat": 33.7930831,
    "lng": 132.866314,
    "types": [
      "restaurant",
      "food",
      "point_of_interest",
      "store",
      "establishment"
    ],
    "google_url": "https://www.google.com/maps/place/?q=place_id:ChIJGWEwYFbdTzUR0yyJfbbgbC0",
    "seen_from": [
      {
        "rep_index": 17,
        "origin_type": "urban",
        "lat": 33.7929531,
        "lon": 132.8654144,
        "radius": 150,
        "type": "restaurant"
      }
    ]
  },
  {
    "place_id": "ChIJUai2pGLvTzURg3ABOeatjTA",
    "name": "イタリアンキッチン Tia'cano（ティアカーノ）",
    "lat": 33.8335116,
    "lng": 132.7573443,
    "types": [
      "restaurant",
      "food",
      "point_of_interest",
      "establishment"
    ],
    "google_url": "https://www.google.com/maps/place/?q=place_id:ChIJUai2pGLvTzURg3ABOeatjTA",
    "seen_from": [
      {
        "rep_index": 18,
        "origin_type": "urban",
        "lat": 33.8327068,
        "lon": 132.7562758,
        "radius": 150,
        "type": "restaurant"
      }
    ]
  },
  {
    "place_id": "ChIJm9SCtGLvTzURKZRpAWNa_TA",
    "name": "光月亭",
    "lat": 33.8338091,
    "lng": 132.7565625,
    "types": [
      "restaurant",
      "food",
      "point_of_interest",
      "establishment"
    ],
    "google_url": "https://www.google.com/maps/place/?q=place_id:ChIJm9SCtGLvTzURKZRpAWNa_TA",
    "seen_from": [
      {
        "rep_index": 18,
        "origin_type": "urban",
        "lat": 33.8327068,
        "lon": 132.7562758,
        "radius": 150,
        "type": "restaurant"
      }
    ]
  },
  {
    "place_id": "ChIJUai2pGLvTzURRxS0qVJMV5M",
    "name": "中国料理 胡桃",
    "lat": 33.833599,
    "lng": 132.7573242,
    "types": [
      "restaurant",
      "food",
      "point_of_interest",
      "establishment"
    ],
    "google_url": "https://www.google.com/maps/place/?q=place_id:ChIJUai2pGLvTzURRxS0qVJMV5M",
    "seen_from": [
      {
        "rep_index": 18,
        "origin_type": "urban",
        "lat": 33.8327068,
        "lon": 132.7562758,
        "radius": 150,
        "type": "restaurant"
      }
    ]
  },
  {
    "place_id": "ChIJr5AnLH3vTzURCrAV3MMNwl8",
    "name": "お番菜 こいのぼり",
    "lat": 33.832727,
    "lng": 132.756165,
    "types": [
      "restaurant",
      "food",
      "point_of_interest",
      "establishment"
    ],
    "google_url": "https://www.google.com/maps/place/?q=place_id:ChIJr5AnLH3vTzURCrAV3MMNwl8",
    "seen_from": [
      {
        "rep_index": 18,
        "origin_type": "urban",
        "lat": 33.8327068,
        "lon": 132.7562758,
        "radius": 150,
        "type": "restaurant"
      }
    ]
  },
  {
    "place_id": "ChIJL7G7sGLvTzURKoJQNhWEcq4",
    "name": "アリラン焼肉ハウス 土橋店",
    "lat": 33.8334432,
    "lng": 132.7570171,
    "types": [
      "restaurant",
      "food",
      "point_of_interest",
      "establishment"
    ],
    "google_url": "https://www.google.com/maps/place/?q=place_id:ChIJL7G7sGLvTzURKoJQNhWEcq4",
    "seen_from": [
      {
        "rep_index": 18,
        "origin_type": "urban",
        "lat": 33.8327068,
        "lon": 132.7562758,
        "radius": 150,
        "type": "restaurant"
      }
    ]
  },
  {
    "place_id": "ChIJe1hOGX7vTzURb33VZn3LbGs",
    "name": "Byナカガワ2",
    "lat": 33.83342699999999,
    "lng": 132.7568178,
    "types": [
      "restaurant",
      "food",
      "point_of_interest",
      "establishment"
    ],
    "google_url": "https://www.google.com/maps/place/?q=place_id:ChIJe1hOGX7vTzURb33VZn3LbGs",
    "seen_from": [
      {
        "rep_index": 18,
        "origin_type": "urban",
        "lat": 33.8327068,
        "lon": 132.7562758,
        "radius": 150,
        "type": "restaurant"
      }
    ]
  },
  {
    "place_id": "ChIJyeNe3f7xTzUR8RhQA2J47Do",
    "name": "お好み焼 jupiter",
    "lat": 33.7865832,
    "lng": 132.7039882,
    "types": [
      "meal_delivery",
      "restaurant",
      "food",
      "point_of_interest",
      "establishment"
    ],
    "google_url": "https://www.google.com/maps/place/?q=place_id:ChIJyeNe3f7xTzUR8RhQA2J47Do",
    "seen_from": [
      {
        "rep_index": 20,
        "origin_type": "urban",
        "lat": 33.7861048,
        "lon": 132.7050016,
        "radius": 150,
        "type": "restaurant"
      }
    ]
  },
  {
    "place_id": "ChIJo8lj3f7xTzURSVWOYDVJDoA",
    "name": "すずろ",
    "lat": 33.78660929999999,
    "lng": 132.7039395,
    "types": [
      "restaurant",
      "food",
      "point_of_interest",
      "establishment"
    ],
    "google_url": "https://www.google.com/maps/place/?q=place_id:ChIJo8lj3f7xTzURSVWOYDVJDoA",
    "seen_from": [
      {
        "rep_index": 20,
        "origin_type": "urban",
        "lat": 33.7861048,
        "lon": 132.7050016,
        "radius": 150,
        "type": "restaurant"
      }
    ]
  },
  {
    "place_id": "ChIJR_5UfoblTzURryp8uSDnVdk",
    "name": "ホテル松山ヒルズＪＲ駅前店",
    "lat": 33.8399652,
    "lng": 132.7541037,
    "types": [
      "lodging",
      "restaurant",
      "food",
      "point_of_interest",
      "establishment"
    ],
    "google_url": "https://www.google.com/maps/place/?q=place_id:ChIJR_5UfoblTzURryp8uSDnVdk",
    "seen_from": [
      {
        "rep_index": 21,
        "origin_type": "urban",
        "lat": 33.8399141,
        "lon": 132.7553103,
        "radius": 150,
        "type": "restaurant"
      },
      {
        "rep_index": 620,
        "origin_type": "roadside",
        "lat": 33.8410854,
        "lon": 132.7526586,
        "radius": 300,
        "type": "restaurant"
      }
    ]
  },
  {
    "place_id": "ChIJCyuHjoXlTzURhopUUKZTCwg",
    "name": "男組 釣天狗 松山店",
    "lat": 33.84063500000001,
    "lng": 132.755979,
    "types": [
      "restaurant",
      "food",
      "point_of_interest",
      "establishment"
    ],
    "google_url": "https://www.google.com/maps/place/?q=place_id:ChIJCyuHjoXlTzURhopUUKZTCwg",
    "seen_from": [
      {
        "rep_index": 21,
        "origin_type": "urban",
        "lat": 33.8399141,
        "lon": 132.7553103,
        "radius": 150,
        "type": "restaurant"
      }
    ]
  },
  {
    "place_id": "ChIJ7cZAxdvlTzURcmjMBsQUyuU",
    "name": "NUMBER808",
    "lat": 33.83992859999999,
    "lng": 132.7554693,
    "types": [
      "grocery_or_supermarket",
      "restaurant",
      "food",
      "point_of_interest",
      "store",
      "establishment"
    ],
    "google_url": "https://www.google.com/maps/place/?q=place_id:ChIJ7cZAxdvlTzURcmjMBsQUyuU",
    "seen_from": [
      {
        "rep_index": 21,
        "origin_type": "urban",
        "lat": 33.8399141,
        "lon": 132.7553103,
        "radius": 150,
        "type": "restaurant"
      }
    ]
  },
  {
    "place_id": "ChIJl9OFK_HlTzURICRU3-z-yxM",
    "name": "Chinese Restaurant Kisaiya 松山店",
    "lat": 33.8403442,
    "lng": 132.7549285,
    "types": [
      "meal_takeaway",
      "restaurant",
      "food",
      "point_of_interest",
      "establishment"
    ],
    "google_url": "https://www.google.com/maps/place/?q=place_id:ChIJl9OFK_HlTzURICRU3-z-yxM",
    "seen_from": [
      {
        "rep_index": 21,
        "origin_type": "urban",
        "lat": 33.8399141,
        "lon": 132.7553103,
        "radius": 150,
        "type": "restaurant"
      }
    ]
  },
  {
    "place_id": "ChIJc8vZ8oXlTzURDiVwFkMi19E",
    "name": "えびすや",
    "lat": 33.84035389999999,
    "lng": 132.7559993,
    "types": [
      "restaurant",
      "food",
      "point_of_interest",
      "establishment"
    ],
    "google_url": "https://www.google.com/maps/place/?q=place_id:ChIJc8vZ8oXlTzURDiVwFkMi19E",
    "seen_from": [
      {
        "rep_index": 21,
        "origin_type": "urban",
        "lat": 33.8399141,
        "lon": 132.7553103,
        "radius": 150,
        "type": "restaurant"
      }
    ]
  },
  {
    "place_id": "ChIJl6phjoXlTzUR6HTY0Nwrnc8",
    "name": "菊扇",
    "lat": 33.8407468,
    "lng": 132.7559694,
    "types": [
      "restaurant",
      "food",
      "point_of_interest",
      "establishment"
    ],
    "google_url": "https://www.google.com/maps/place/?q=place_id:ChIJl6phjoXlTzUR6HTY0Nwrnc8",
    "seen_from": [
      {
        "rep_index": 21,
        "origin_type": "urban",
        "lat": 33.8399141,
        "lon": 132.7553103,
        "radius": 150,
        "type": "restaurant"
      }
    ]
  },
  {
    "place_id": "ChIJZ8DLzYXlTzURxxOqUaTtrIU",
    "name": "あかね家",
    "lat": 33.840703,
    "lng": 132.7542732,
    "types": [
      "restaurant",
      "food",
      "point_of_interest",
      "establishment"
    ],
    "google_url": "https://www.google.com/maps/place/?q=place_id:ChIJZ8DLzYXlTzURxxOqUaTtrIU",
    "seen_from": [
      {
        "rep_index": 21,
        "origin_type": "urban",
        "lat": 33.8399141,
        "lon": 132.7553103,
        "radius": 150,
        "type": "restaurant"
      },
      {
        "rep_index": 620,
        "origin_type": "roadside",
        "lat": 33.8410854,
        "lon": 132.7526586,
        "radius": 300,
        "type": "restaurant"
      }
    ]
  },
  {
    "place_id": "ChIJFSyNhYXlTzURX_CEGj0Gkpw",
    "name": "自家焙煎珈琲 モア",
    "lat": 33.8409741,
    "lng": 132.756012,
    "types": [
      "cafe",
      "food",
      "point_of_interest",
      "store",
      "establishment"
    ],
    "google_url": "https://www.google.com/maps/place/?q=place_id:ChIJFSyNhYXlTzURX_CEGj0Gkpw",
    "seen_from": [
      {
        "rep_index": 21,
        "origin_type": "urban",
        "lat": 33.8399141,
        "lon": 132.7553103,
        "radius": 150,
        "type": "cafe"
      }
    ]
  },
  {
    "place_id": "ChIJh5Eo2YXlTzURoz-Nm-vQeuY",
    "name": "COFFEE and KITCHEN annette(アネット)",
    "lat": 33.8395633,
    "lng": 132.7549999,
    "types": [
      "cafe",
      "food",
      "point_of_interest",
      "store",
      "establishment"
    ],
    "google_url": "https://www.google.com/maps/place/?q=place_id:ChIJh5Eo2YXlTzURoz-Nm-vQeuY",
    "seen_from": [
      {
        "rep_index": 21,
        "origin_type": "urban",
        "lat": 33.8399141,
        "lon": 132.7553103,
        "radius": 150,
        "type": "cafe"
      },
      {
        "rep_index": 620,
        "origin_type": "roadside",
        "lat": 33.8410854,
        "lon": 132.7526586,
        "radius": 300,
        "type": "cafe"
      }
    ]
  },
  {
    "place_id": "ChIJ2TLy14XlTzURgHXrcr4iiuU",
    "name": "珈琲専門店珈琳(かりん)",
    "lat": 33.83998950000001,
    "lng": 132.754637,
    "types": [
      "cafe",
      "food",
      "point_of_interest",
      "store",
      "establishment"
    ],
    "google_url": "https://www.google.com/maps/place/?q=place_id:ChIJ2TLy14XlTzURgHXrcr4iiuU",
    "seen_from": [
      {
        "rep_index": 21,
        "origin_type": "urban",
        "lat": 33.8399141,
        "lon": 132.7553103,
        "radius": 150,
        "type": "cafe"
      },
      {
        "rep_index": 620,
        "origin_type": "roadside",
        "lat": 33.8410854,
        "lon": 132.7526586,
        "radius": 300,
        "type": "cafe"
      }
    ]
  },
  {
    "place_id": "ChIJl4DACIblTzURsSlnVcOHzas",
    "name": "マイム",
    "lat": 33.8391305,
    "lng": 132.7557935,
    "types": [
      "cafe",
      "food",
      "point_of_interest",
      "establishment"
    ],
    "google_url": "https://www.google.com/maps/place/?q=place_id:ChIJl4DACIblTzURsSlnVcOHzas",
    "seen_from": [
      {
        "rep_index": 21,
        "origin_type": "urban",
        "lat": 33.8399141,
        "lon": 132.7553103,
        "radius": 150,
        "type": "cafe"
      }
    ]
  },
  {
    "place_id": "ChIJjWJnV4_lTzUR1O4KRjAQm4M",
    "name": "一進流珈琲屋",
    "lat": 33.839513,
    "lng": 132.756695,
    "types": [
      "cafe",
      "food",
      "point_of_interest",
      "store",
      "establishment"
    ],
    "google_url": "https://www.google.com/maps/place/?q=place_id:ChIJjWJnV4_lTzUR1O4KRjAQm4M",
    "seen_from": [
      {
        "rep_index": 21,
        "origin_type": "urban",
        "lat": 33.8399141,
        "lon": 132.7553103,
        "radius": 150,
        "type": "cafe"
      }
    ]
  },
  {
    "place_id": "ChIJnZso_DDlTzURCR_LjwhzMpU",
    "name": "催眠術 & マジック Cafe & Bar Spread One (カフェ&バー スプレッド ワン)",
    "lat": 33.8387579,
    "lng": 132.7554243,
    "types": [
      "bar",
      "tourist_attraction",
      "cafe",
      "night_club",
      "health",
      "food",
      "point_of_interest",
      "establishment"
    ],
    "google_url": "https://www.google.com/maps/place/?q=place_id:ChIJnZso_DDlTzURCR_LjwhzMpU",
    "seen_from": [
      {
        "rep_index": 21,
        "origin_type": "urban",
        "lat": 33.8399141,
        "lon": 132.7553103,
        "radius": 150,
        "type": "cafe"
      }
    ]
  },
  {
    "place_id": "ChIJFy17h0nlTzURat9ywl40zq4",
    "name": "ソフトタイム",
    "lat": 33.8696516,
    "lng": 132.7125578,
    "types": [
      "restaurant",
      "food",
      "point_of_interest",
      "establishment"
    ],
    "google_url": "https://www.google.com/maps/place/?q=place_id:ChIJFy17h0nlTzURat9ywl40zq4",
    "seen_from": [
      {
        "rep_index": 22,
        "origin_type": "urban",
        "lat": 33.8695183,
        "lon": 132.7132546,
        "radius": 150,
        "type": "restaurant"
      },
      {
        "rep_index": 772,
        "origin_type": "roadside",
        "lat": 33.8696472,
        "lon": 132.7126014,
        "radius": 300,
        "type": "restaurant"
      }
    ]
  },
  {
    "place_id": "ChIJjxTAGgD7TzURQmA5DuI7X9Q",
    "name": "ぐれいす",
    "lat": 33.8836131,
    "lng": 132.7016104,
    "types": [
      "restaurant",
      "food",
      "point_of_interest",
      "establishment"
    ],
    "google_url": "https://www.google.com/maps/place/?q=place_id:ChIJjxTAGgD7TzURQmA5DuI7X9Q",
    "seen_from": [
      {
        "rep_index": 23,
        "origin_type": "urban",
        "lat": 33.8834303,
        "lon": 132.702036,
        "radius": 150,
        "type": "restaurant"
      }
    ]
  },
  {
    "place_id": "ChIJyd9xaM76TzURc8dq1ZFlgC4",
    "name": "みなとや食堂",
    "lat": 33.8836641,
    "lng": 132.70161,
    "types": [
      "restaurant",
      "food",
      "point_of_interest",
      "establishment"
    ],
    "google_url": "https://www.google.com/maps/place/?q=place_id:ChIJyd9xaM76TzURc8dq1ZFlgC4",
    "seen_from": [
      {
        "rep_index": 23,
        "origin_type": "urban",
        "lat": 33.8834303,
        "lon": 132.702036,
        "radius": 150,
        "type": "restaurant"
      }
    ]
  },
  {
    "place_id": "ChIJMSj7hVI_UDURxpNzScqxO-o",
    "name": "ちょうちょ島館",
    "lat": 34.1844318,
    "lng": 132.8838857,
    "types": [
      "restaurant",
      "food",
      "point_of_interest",
      "establishment"
    ],
    "google_url": "https://www.google.com/maps/place/?q=place_id:ChIJMSj7hVI_UDURxpNzScqxO-o",
    "seen_from": [
      {
        "rep_index": 24,
        "origin_type": "urban",
        "lat": 34.1844812,
        "lon": 132.8839061,
        "radius": 150,
        "type": "restaurant"
      }
    ]
  },
  {
    "place_id": "ChIJtcuaB4usUTUR7CGsBSaEgAE",
    "name": "西野 お好み焼き店",
    "lat": 34.2769857,
    "lng": 133.2105709,
    "types": [
      "restaurant",
      "food",
      "point_of_interest",
      "establishment"
    ],
    "google_url": "https://www.google.com/maps/place/?q=place_id:ChIJtcuaB4usUTUR7CGsBSaEgAE",
    "seen_from": [
      {
        "rep_index": 29,
        "origin_type": "urban",
        "lat": 34.2772634,
        "lon": 133.2097472,
        "radius": 150,
        "type": "restaurant"
      }
    ]
  },
  {
    "place_id": "ChIJT3M2UgCtUTUR7EfQG34Iin0",
    "name": "Yumeshima Coffee Roastery",
    "lat": 34.2665705,
    "lng": 133.1855609,
    "types": [
      "cafe",
      "store",
      "food",
      "point_of_interest",
      "establishment"
    ],
    "google_url": "https://www.google.com/maps/place/?q=place_id:ChIJT3M2UgCtUTUR7EfQG34Iin0",
    "seen_from": [
      {
        "rep_index": 30,
        "origin_type": "urban",
        "lat": 34.2665548,
        "lon": 133.1855753,
        "radius": 150,
        "type": "cafe"
      }
    ]
  },
  {
    "place_id": "ChIJ4ZHe-9rOUTURcuv2pYo0ct8",
    "name": "新居浜市役所地下食堂浜食",
    "lat": 33.9601072,
    "lng": 133.2832568,
    "types": [
      "restaurant",
      "food",
      "point_of_interest",
      "establishment"
    ],
    "google_url": "https://www.google.com/maps/place/?q=place_id:ChIJ4ZHe-9rOUTURcuv2pYo0ct8",
    "seen_from": [
      {
        "rep_index": 31,
        "origin_type": "urban",
        "lat": 33.9603497,
        "lon": 133.2835899,
        "radius": 150,
        "type": "restaurant"
      }
    ]
  },
  {
    "place_id": "ChIJS6XV-dfPUTURAhOITXOlaLI",
    "name": "丸源ラーメン 新居浜店",
    "lat": 33.9609353,
    "lng": 133.2828986,
    "types": [
      "meal_takeaway",
      "restaurant",
      "food",
      "point_of_interest",
      "establishment"
    ],
    "google_url": "https://www.google.com/maps/place/?q=place_id:ChIJS6XV-dfPUTURAhOITXOlaLI",
    "seen_from": [
      {
        "rep_index": 31,
        "origin_type": "urban",
        "lat": 33.9603497,
        "lon": 133.2835899,
        "radius": 150,
        "type": "restaurant"
      },
      {
        "rep_index": 622,
        "origin_type": "roadside",
        "lat": 33.9633047,
        "lon": 133.2826019,
        "radius": 300,
        "type": "restaurant"
      }
    ]
  },
  {
    "place_id": "ChIJq1hRA_nPUTURF74OnLRJCJE",
    "name": "HICKORY",
    "lat": 33.9612802,
    "lng": 133.2846818,
    "types": [
      "meal_takeaway",
      "restaurant",
      "food",
      "point_of_interest",
      "establishment"
    ],
    "google_url": "https://www.google.com/maps/place/?q=place_id:ChIJq1hRA_nPUTURF74OnLRJCJE",
    "seen_from": [
      {
        "rep_index": 31,
        "origin_type": "urban",
        "lat": 33.9603497,
        "lon": 133.2835899,
        "radius": 150,
        "type": "restaurant"
      }
    ]
  },
  {
    "place_id": "ChIJLcPKam2UUTURocbnUou3Isw",
    "name": "天領",
    "lat": 33.9800088,
    "lng": 133.5497473,
    "types": [
      "restaurant",
      "food",
      "point_of_interest",
      "establishment"
    ],
    "google_url": "https://www.google.com/maps/place/?q=place_id:ChIJLcPKam2UUTURocbnUou3Isw",
    "seen_from": [
      {
        "rep_index": 32,
        "origin_type": "urban",
        "lat": 33.980744,
        "lon": 133.5499338,
        "radius": 150,
        "type": "restaurant"
      }
    ]
  },
  {
    "place_id": "ChIJ-eNkzRKUUTURxDEJ7pTlHn8",
    "name": "みやがわ",
    "lat": 33.981371,
    "lng": 133.549306,
    "types": [
      "restaurant",
      "food",
      "point_of_interest",
      "establishment"
    ],
    "google_url": "https://www.google.com/maps/place/?q=place_id:ChIJ-eNkzRKUUTURxDEJ7pTlHn8",
    "seen_from": [
      {
        "rep_index": 32,
        "origin_type": "urban",
        "lat": 33.980744,
        "lon": 133.5499338,
        "radius": 150,
        "type": "restaurant"
      }
    ]
  },
  {
    "place_id": "ChIJW1gWYQCVUTURpRkyiauP4_U",
    "name": "ぴっぴや",
    "lat": 33.98062940000001,
    "lng": 133.5510073,
    "types": [
      "restaurant",
      "food",
      "point_of_interest",
      "establishment"
    ],
    "google_url": "https://www.google.com/maps/place/?q=place_id:ChIJW1gWYQCVUTURpRkyiauP4_U",
    "seen_from": [
      {
        "rep_index": 32,
        "origin_type": "urban",
        "lat": 33.980744,
        "lon": 133.5499338,
        "radius": 150,
        "type": "restaurant"
      }
    ]
  },
  {
    "place_id": "ChIJgxqoV22UUTUR78I_QHQac9E",
    "name": "ロイヤルタイム",
    "lat": 33.9801101,
    "lng": 133.5509603,
    "types": [
      "restaurant",
      "food",
      "point_of_interest",
      "establishment"
    ],
    "google_url": "https://www.google.com/maps/place/?q=place_id:ChIJgxqoV22UUTUR78I_QHQac9E",
    "seen_from": [
      {
        "rep_index": 32,
        "origin_type": "urban",
        "lat": 33.980744,
        "lon": 133.5499338,
        "radius": 150,
        "type": "restaurant"
      }
    ]
  },
  {
    "place_id": "ChIJCSHfcMXSUTURVJIWMVaPZZE",
    "name": "きよみず",
    "lat": 33.9194973,
    "lng": 133.1821769,
    "types": [
      "restaurant",
      "food",
      "point_of_interest",
      "establishment"
    ],
    "google_url": "https://www.google.com/maps/place/?q=place_id:ChIJCSHfcMXSUTURVJIWMVaPZZE",
    "seen_from": [
      {
        "rep_index": 33,
        "origin_type": "urban",
        "lat": 33.9194466,
        "lon": 133.1813268,
        "radius": 150,
        "type": "restaurant"
      }
    ]
  },
  {
    "place_id": "ChIJ1cdQL9fTUTURdZSOUAeEbe4",
    "name": "ゴテンマエ食堂",
    "lat": 33.91909,
    "lng": 133.1806855,
    "types": [
      "meal_takeaway",
      "restaurant",
      "food",
      "point_of_interest",
      "establishment"
    ],
    "google_url": "https://www.google.com/maps/place/?q=place_id:ChIJ1cdQL9fTUTURdZSOUAeEbe4",
    "seen_from": [
      {
        "rep_index": 33,
        "origin_type": "urban",
        "lat": 33.9194466,
        "lon": 133.1813268,
        "radius": 150,
        "type": "restaurant"
      }
    ]
  },
  {
    "place_id": "ChIJk-pvJ8_SUTURG0JEyHh95rc",
    "name": "喜楽寿司",
    "lat": 33.919061,
    "lng": 133.182028,
    "types": [
      "restaurant",
      "food",
      "point_of_interest",
      "establishment"
    ],
    "google_url": "https://www.google.com/maps/place/?q=place_id:ChIJk-pvJ8_SUTURG0JEyHh95rc",
    "seen_from": [
      {
        "rep_index": 33,
        "origin_type": "urban",
        "lat": 33.9194466,
        "lon": 133.1813268,
        "radius": 150,
        "type": "restaurant"
      }
    ]
  },
  {
    "place_id": "ChIJZ8sfJs_SUTURmii3UTf_pOs",
    "name": "ごかく 西条店",
    "lat": 33.9191596,
    "lng": 133.1822191,
    "types": [
      "restaurant",
      "food",
      "point_of_interest",
      "establishment"
    ],
    "google_url": "https://www.google.com/maps/place/?q=place_id:ChIJZ8sfJs_SUTURmii3UTf_pOs",
    "seen_from": [
      {
        "rep_index": 33,
        "origin_type": "urban",
        "lat": 33.9194466,
        "lon": 133.1813268,
        "radius": 150,
        "type": "restaurant"
      }
    ]
  },
  {
    "place_id": "ChIJ4ZSfbwDTUTUR81Bzf2Llmfk",
    "name": "Time Stripper",
    "lat": 33.91880750000001,
    "lng": 133.182017,
    "types": [
      "restaurant",
      "food",
      "point_of_interest",
      "establishment"
    ],
    "google_url": "https://www.google.com/maps/place/?q=place_id:ChIJ4ZSfbwDTUTUR81Bzf2Llmfk",
    "seen_from": [
      {
        "rep_index": 33,
        "origin_type": "urban",
        "lat": 33.9194466,
        "lon": 133.1813268,
        "radius": 150,
        "type": "restaurant"
      }
    ]
  },
  {
    "place_id": "ChIJZSnl3PLTUTURAFTUw_8azmI",
    "name": "無添加たこやき おかだ",
    "lat": 33.9193306,
    "lng": 133.1824637,
    "types": [
      "meal_takeaway",
      "cafe",
      "restaurant",
      "food",
      "point_of_interest",
      "establishment"
    ],
    "google_url": "https://www.google.com/maps/place/?q=place_id:ChIJZSnl3PLTUTURAFTUw_8azmI",
    "seen_from": [
      {
        "rep_index": 33,
        "origin_type": "urban",
        "lat": 33.9194466,
        "lon": 133.1813268,
        "radius": 150,
        "type": "restaurant"
      },
      {
        "rep_index": 33,
        "origin_type": "urban",
        "lat": 33.9194466,
        "lon": 133.1813268,
        "radius": 150,
        "type": "cafe"
      }
    ]
  },
  {
    "place_id": "ChIJGZJ5cgDTUTURCN-W-wfNvgE",
    "name": "居酒屋 縁結（えんゆう）",
    "lat": 33.9187594,
    "lng": 133.1823512,
    "types": [
      "restaurant",
      "food",
      "point_of_interest",
      "establishment"
    ],
    "google_url": "https://www.google.com/maps/place/?q=place_id:ChIJGZJ5cgDTUTURCN-W-wfNvgE",
    "seen_from": [
      {
        "rep_index": 33,
        "origin_type": "urban",
        "lat": 33.9194466,
        "lon": 133.1813268,
        "radius": 150,
        "type": "restaurant"
      }
    ]
  },
  {
    "place_id": "ChIJqclBH8_SUTURZtMoPGbhanA",
    "name": "居酒屋 一番",
    "lat": 33.918541,
    "lng": 133.182217,
    "types": [
      "restaurant",
      "food",
      "point_of_interest",
      "establishment"
    ],
    "google_url": "https://www.google.com/maps/place/?q=place_id:ChIJqclBH8_SUTURZtMoPGbhanA",
    "seen_from": [
      {
        "rep_index": 33,
        "origin_type": "urban",
        "lat": 33.9194466,
        "lon": 133.1813268,
        "radius": 150,
        "type": "restaurant"
      }
    ]
  },
  {
    "place_id": "ChIJsUw0WADTUTURiFNaiNO_C_Y",
    "name": "沖縄そばの店 さんぴん食堂",
    "lat": 33.9186506,
    "lng": 133.1824216,
    "types": [
      "restaurant",
      "food",
      "point_of_interest",
      "establishment"
    ],
    "google_url": "https://www.google.com/maps/place/?q=place_id:ChIJsUw0WADTUTURiFNaiNO_C_Y",
    "seen_from": [
      {
        "rep_index": 33,
        "origin_type": "urban",
        "lat": 33.9194466,
        "lon": 133.1813268,
        "radius": 150,
        "type": "restaurant"
      }
    ]
  },
  {
    "place_id": "ChIJwULQlDnTUTURFUFHwOlWJyI",
    "name": "食堂UZ-うず-",
    "lat": 33.9184633,
    "lng": 133.1822293,
    "types": [
      "restaurant",
      "food",
      "point_of_interest",
      "establishment"
    ],
    "google_url": "https://www.google.com/maps/place/?q=place_id:ChIJwULQlDnTUTURFUFHwOlWJyI",
    "seen_from": [
      {
        "rep_index": 33,
        "origin_type": "urban",
        "lat": 33.9194466,
        "lon": 133.1813268,
        "radius": 150,
        "type": "restaurant"
      }
    ]
  },
  {
    "place_id": "ChIJtSXNOsnSUTURFZjCH73nYL4",
    "name": "だんじょう",
    "lat": 33.920777,
    "lng": 133.181372,
    "types": [
      "restaurant",
      "food",
      "point_of_interest",
      "establishment"
    ],
    "google_url": "https://www.google.com/maps/place/?q=place_id:ChIJtSXNOsnSUTURFZjCH73nYL4",
    "seen_from": [
      {
        "rep_index": 33,
        "origin_type": "urban",
        "lat": 33.9194466,
        "lon": 133.1813268,
        "radius": 150,
        "type": "restaurant"
      }
    ]
  },
  {
    "place_id": "ChIJkSWCXOfTUTURZxOLKRAdobw",
    "name": "PEACH！",
    "lat": 33.919353,
    "lng": 133.1826368,
    "types": [
      "cafe",
      "food",
      "point_of_interest",
      "establishment"
    ],
    "google_url": "https://www.google.com/maps/place/?q=place_id:ChIJkSWCXOfTUTURZxOLKRAdobw",
    "seen_from": [
      {
        "rep_index": 33,
        "origin_type": "urban",
        "lat": 33.9194466,
        "lon": 133.1813268,
        "radius": 150,
        "type": "cafe"
      }
    ]
  },
  {
    "place_id": "ChIJCx06i6DTUTURuO0vxNrVjTI",
    "name": "GreenHouse-19",
    "lat": 33.9194396,
    "lng": 133.1826997,
    "types": [
      "cafe",
      "store",
      "food",
      "point_of_interest",
      "establishment"
    ],
    "google_url": "https://www.google.com/maps/place/?q=place_id:ChIJCx06i6DTUTURuO0vxNrVjTI",
    "seen_from": [
      {
        "rep_index": 33,
        "origin_type": "urban",
        "lat": 33.9194466,
        "lon": 133.1813268,
        "radius": 150,
        "type": "cafe"
      }
    ]
  },
  {
    "place_id": "ChIJTSkPqF06UDUR9MDUNzbtHTE",
    "name": "なわぶね",
    "lat": 34.0653701,
    "lng": 132.9982415,
    "types": [
      "restaurant",
      "food",
      "point_of_interest",
      "store",
      "establishment"
    ],
    "google_url": "https://www.google.com/maps/place/?q=place_id:ChIJTSkPqF06UDUR9MDUNzbtHTE",
    "seen_from": [
      {
        "rep_index": 34,
        "origin_type": "urban",
        "lat": 34.0658182,
        "lon": 132.9976758,
        "radius": 150,
        "type": "restaurant"
      },
      {
        "rep_index": 730,
        "origin_type": "roadside",
        "lat": 34.0646348,
        "lon": 132.997656,
        "radius": 300,
        "type": "restaurant"
      }
    ]
  },
  {
    "place_id": "ChIJGaIYCF06UDURDFvnLhUAhTs",
    "name": "ワインとごはん RAMO",
    "lat": 34.0654532,
    "lng": 132.9982909,
    "types": [
      "restaurant",
      "food",
      "point_of_interest",
      "establishment"
    ],
    "google_url": "https://www.google.com/maps/place/?q=place_id:ChIJGaIYCF06UDURDFvnLhUAhTs",
    "seen_from": [
      {
        "rep_index": 34,
        "origin_type": "urban",
        "lat": 34.0658182,
        "lon": 132.9976758,
        "radius": 150,
        "type": "restaurant"
      },
      {
        "rep_index": 730,
        "origin_type": "roadside",
        "lat": 34.0646348,
        "lon": 132.997656,
        "radius": 300,
        "type": "restaurant"
      }
    ]
  },
  {
    "place_id": "ChIJTfpeZ1w6UDURObFmCrTvpzE",
    "name": "寿し きよ輝",
    "lat": 34.065907,
    "lng": 132.996414,
    "types": [
      "restaurant",
      "food",
      "point_of_interest",
      "establishment"
    ],
    "google_url": "https://www.google.com/maps/place/?q=place_id:ChIJTfpeZ1w6UDURObFmCrTvpzE",
    "seen_from": [
      {
        "rep_index": 34,
        "origin_type": "urban",
        "lat": 34.0658182,
        "lon": 132.9976758,
        "radius": 150,
        "type": "restaurant"
      },
      {
        "rep_index": 730,
        "origin_type": "roadside",
        "lat": 34.0646348,
        "lon": 132.997656,
        "radius": 300,
        "type": "restaurant"
      }
    ]
  },
  {
    "place_id": "ChIJ5fQesV06UDURDBSItPv5caU",
    "name": "わんず",
    "lat": 34.064726,
    "lng": 132.998066,
    "types": [
      "restaurant",
      "food",
      "point_of_interest",
      "establishment"
    ],
    "google_url": "https://www.google.com/maps/place/?q=place_id:ChIJ5fQesV06UDURDBSItPv5caU",
    "seen_from": [
      {
        "rep_index": 34,
        "origin_type": "urban",
        "lat": 34.0658182,
        "lon": 132.9976758,
        "radius": 150,
        "type": "restaurant"
      },
      {
        "rep_index": 730,
        "origin_type": "roadside",
        "lat": 34.0646348,
        "lon": 132.997656,
        "radius": 300,
        "type": "restaurant"
      }
    ]
  },
  {
    "place_id": "ChIJJzVcQFw6UDURz52ZNqQqFpM",
    "name": "花梨",
    "lat": 34.0651234,
    "lng": 132.9965209,
    "types": [
      "restaurant",
      "food",
      "point_of_interest",
      "establishment"
    ],
    "google_url": "https://www.google.com/maps/place/?q=place_id:ChIJJzVcQFw6UDURz52ZNqQqFpM",
    "seen_from": [
      {
        "rep_index": 34,
        "origin_type": "urban",
        "lat": 34.0658182,
        "lon": 132.9976758,
        "radius": 150,
        "type": "restaurant"
      },
      {
        "rep_index": 730,
        "origin_type": "roadside",
        "lat": 34.0646348,
        "lon": 132.997656,
        "radius": 300,
        "type": "restaurant"
      }
    ]
  },
  {
    "place_id": "ChIJCUsQEQA7UDURAvXB44L_Vk4",
    "name": "弁当店レアレア",
    "lat": 34.0657343,
    "lng": 132.998255,
    "types": [
      "meal_takeaway",
      "restaurant",
      "food",
      "point_of_interest",
      "establishment"
    ],
    "google_url": "https://www.google.com/maps/place/?q=place_id:ChIJCUsQEQA7UDURAvXB44L_Vk4",
    "seen_from": [
      {
        "rep_index": 34,
        "origin_type": "urban",
        "lat": 34.0658182,
        "lon": 132.9976758,
        "radius": 150,
        "type": "restaurant"
      }
    ]
  },
  {
    "place_id": "ChIJ__DjeF47UDURaiJzgK3r5oU",
    "name": "麺屋 颯 今治店",
    "lat": 34.06526660000001,
    "lng": 132.9981654,
    "types": [
      "restaurant",
      "food",
      "point_of_interest",
      "establishment"
    ],
    "google_url": "https://www.google.com/maps/place/?q=place_id:ChIJ__DjeF47UDURaiJzgK3r5oU",
    "seen_from": [
      {
        "rep_index": 34,
        "origin_type": "urban",
        "lat": 34.0658182,
        "lon": 132.9976758,
        "radius": 150,
        "type": "restaurant"
      }
    ]
  },
  {
    "place_id": "ChIJA_Wbrl06UDURhZRZfDFnV3s",
    "name": "中華飯店 ごくう",
    "lat": 34.0651146,
    "lng": 132.9980361,
    "types": [
      "restaurant",
      "food",
      "point_of_interest",
      "establishment"
    ],
    "google_url": "https://www.google.com/maps/place/?q=place_id:ChIJA_Wbrl06UDURhZRZfDFnV3s",
    "seen_from": [
      {
        "rep_index": 34,
        "origin_type": "urban",
        "lat": 34.0658182,
        "lon": 132.9976758,
        "radius": 150,
        "type": "restaurant"
      }
    ]
  },
  {
    "place_id": "ChIJEzUXCF06UDURGNwdb4RvAfA",
    "name": "そば元（そばげん）",
    "lat": 34.0657651,
    "lng": 132.9986305,
    "types": [
      "restaurant",
      "food",
      "point_of_interest",
      "establishment"
    ],
    "google_url": "https://www.google.com/maps/place/?q=place_id:ChIJEzUXCF06UDURGNwdb4RvAfA",
    "seen_from": [
      {
        "rep_index": 34,
        "origin_type": "urban",
        "lat": 34.0658182,
        "lon": 132.9976758,
        "radius": 150,
        "type": "restaurant"
      }
    ]
  },
  {
    "place_id": "ChIJF7BZsl06UDURSfuKxEaF6CY",
    "name": "音羽",
    "lat": 34.064937,
    "lng": 132.997791,
    "types": [
      "restaurant",
      "food",
      "point_of_interest",
      "establishment"
    ],
    "google_url": "https://www.google.com/maps/place/?q=place_id:ChIJF7BZsl06UDURSfuKxEaF6CY",
    "seen_from": [
      {
        "rep_index": 34,
        "origin_type": "urban",
        "lat": 34.0658182,
        "lon": 132.9976758,
        "radius": 150,
        "type": "restaurant"
      },
      {
        "rep_index": 730,
        "origin_type": "roadside",
        "lat": 34.0646348,
        "lon": 132.997656,
        "radius": 300,
        "type": "restaurant"
      }
    ]
  },
  {
    "place_id": "ChIJo4BYUAA7UDURufaSNx1oUmI",
    "name": "ＭＩＮＥ（マイン）",
    "lat": 34.0650735,
    "lng": 132.9983742,
    "types": [
      "meal_takeaway",
      "restaurant",
      "food",
      "point_of_interest",
      "establishment"
    ],
    "google_url": "https://www.google.com/maps/place/?q=place_id:ChIJo4BYUAA7UDURufaSNx1oUmI",
    "seen_from": [
      {
        "rep_index": 34,
        "origin_type": "urban",
        "lat": 34.0658182,
        "lon": 132.9976758,
        "radius": 150,
        "type": "restaurant"
      }
    ]
  },
  {
    "place_id": "ChIJ-UDAmVU7UDURs7SFKKq03R4",
    "name": "元祖鉄板焼鳥 五味鳥",
    "lat": 34.0648664,
    "lng": 132.9972621,
    "types": [
      "restaurant",
      "food",
      "point_of_interest",
      "establishment"
    ],
    "google_url": "https://www.google.com/maps/place/?q=place_id:ChIJ-UDAmVU7UDURs7SFKKq03R4",
    "seen_from": [
      {
        "rep_index": 34,
        "origin_type": "urban",
        "lat": 34.0658182,
        "lon": 132.9976758,
        "radius": 150,
        "type": "restaurant"
      },
      {
        "rep_index": 730,
        "origin_type": "roadside",
        "lat": 34.0646348,
        "lon": 132.997656,
        "radius": 300,
        "type": "restaurant"
      }
    ]
  },
  {
    "place_id": "ChIJE-85tV06UDUR2otprEerirY",
    "name": "恵方",
    "lat": 34.0646119,
    "lng": 132.9976489,
    "types": [
      "restaurant",
      "food",
      "point_of_interest",
      "establishment"
    ],
    "google_url": "https://www.google.com/maps/place/?q=place_id:ChIJE-85tV06UDUR2otprEerirY",
    "seen_from": [
      {
        "rep_index": 34,
        "origin_type": "urban",
        "lat": 34.0658182,
        "lon": 132.9976758,
        "radius": 150,
        "type": "restaurant"
      },
      {
        "rep_index": 730,
        "origin_type": "roadside",
        "lat": 34.0646348,
        "lon": 132.997656,
        "radius": 300,
        "type": "restaurant"
      }
    ]
  },
  {
    "place_id": "ChIJNe7hsF06UDURytllcMCE4zQ",
    "name": "とんがらし",
    "lat": 34.06472249999999,
    "lng": 132.9980815,
    "types": [
      "restaurant",
      "food",
      "point_of_interest",
      "establishment"
    ],
    "google_url": "https://www.google.com/maps/place/?q=place_id:ChIJNe7hsF06UDURytllcMCE4zQ",
    "seen_from": [
      {
        "rep_index": 34,
        "origin_type": "urban",
        "lat": 34.0658182,
        "lon": 132.9976758,
        "radius": 150,
        "type": "restaurant"
      },
      {
        "rep_index": 730,
        "origin_type": "roadside",
        "lat": 34.0646348,
        "lon": 132.997656,
        "radius": 300,
        "type": "restaurant"
      }
    ]
  },
  {
    "place_id": "ChIJi3Zb40o7UDURw297FCTkGtA",
    "name": "炭火の串凡",
    "lat": 34.0647425,
    "lng": 132.9982285,
    "types": [
      "restaurant",
      "food",
      "point_of_interest",
      "establishment"
    ],
    "google_url": "https://www.google.com/maps/place/?q=place_id:ChIJi3Zb40o7UDURw297FCTkGtA",
    "seen_from": [
      {
        "rep_index": 34,
        "origin_type": "urban",
        "lat": 34.0658182,
        "lon": 132.9976758,
        "radius": 150,
        "type": "restaurant"
      },
      {
        "rep_index": 730,
        "origin_type": "roadside",
        "lat": 34.0646348,
        "lon": 132.997656,
        "radius": 300,
        "type": "restaurant"
      }
    ]
  },
  {
    "place_id": "ChIJn-deZ1w6UDURz-FO5voqwZk",
    "name": "鳥林",
    "lat": 34.06574200000001,
    "lng": 132.996219,
    "types": [
      "restaurant",
      "food",
      "point_of_interest",
      "establishment"
    ],
    "google_url": "https://www.google.com/maps/place/?q=place_id:ChIJn-deZ1w6UDURz-FO5voqwZk",
    "seen_from": [
      {
        "rep_index": 34,
        "origin_type": "urban",
        "lat": 34.0658182,
        "lon": 132.9976758,
        "radius": 150,
        "type": "restaurant"
      },
      {
        "rep_index": 730,
        "origin_type": "roadside",
        "lat": 34.0646348,
        "lon": 132.997656,
        "radius": 300,
        "type": "restaurant"
      }
    ]
  },
  {
    "place_id": "ChIJVVXxQ_k6UDURpuBmSaC4ASA",
    "name": "三代目鳥メロ 今治ドンドビ店",
    "lat": 34.0658151,
    "lng": 132.999296,
    "types": [
      "restaurant",
      "food",
      "point_of_interest",
      "establishment"
    ],
    "google_url": "https://www.google.com/maps/place/?q=place_id:ChIJVVXxQ_k6UDURpuBmSaC4ASA",
    "seen_from": [
      {
        "rep_index": 34,
        "origin_type": "urban",
        "lat": 34.0658182,
        "lon": 132.9976758,
        "radius": 150,
        "type": "restaurant"
      }
    ]
  },
  {
    "place_id": "ChIJ69Y1OVw6UDURKHmyjVW9gVQ",
    "name": "美穂",
    "lat": 34.06474589999999,
    "lng": 132.9967169,
    "types": [
      "meal_takeaway",
      "restaurant",
      "food",
      "point_of_interest",
      "establishment"
    ],
    "google_url": "https://www.google.com/maps/place/?q=place_id:ChIJ69Y1OVw6UDURKHmyjVW9gVQ",
    "seen_from": [
      {
        "rep_index": 34,
        "origin_type": "urban",
        "lat": 34.0658182,
        "lon": 132.9976758,
        "radius": 150,
        "type": "restaurant"
      }
    ]
  },
  {
    "place_id": "ChIJjXZaZ1w6UDURcAgWiVT0WkY",
    "name": "パフィー（Ｐｕｆｆｅｅ）",
    "lat": 34.06585119999999,
    "lng": 132.9964774,
    "types": [
      "cafe",
      "food",
      "point_of_interest",
      "establishment"
    ],
    "google_url": "https://www.google.com/maps/place/?q=place_id:ChIJjXZaZ1w6UDURcAgWiVT0WkY",
    "seen_from": [
      {
        "rep_index": 34,
        "origin_type": "urban",
        "lat": 34.0658182,
        "lon": 132.9976758,
        "radius": 150,
        "type": "cafe"
      },
      {
        "rep_index": 730,
        "origin_type": "roadside",
        "lat": 34.0646348,
        "lon": 132.997656,
        "radius": 300,
        "type": "cafe"
      }
    ]
  },
  {
    "place_id": "ChIJ0yLZBkY7UDURmT_gpy6TnSI",
    "name": "アガルタ",
    "lat": 34.0654993,
    "lng": 132.9982795,
    "types": [
      "cafe",
      "store",
      "food",
      "point_of_interest",
      "establishment"
    ],
    "google_url": "https://www.google.com/maps/place/?q=place_id:ChIJ0yLZBkY7UDURmT_gpy6TnSI",
    "seen_from": [
      {
        "rep_index": 34,
        "origin_type": "urban",
        "lat": 34.0658182,
        "lon": 132.9976758,
        "radius": 150,
        "type": "cafe"
      },
      {
        "rep_index": 730,
        "origin_type": "roadside",
        "lat": 34.0646348,
        "lon": 132.997656,
        "radius": 300,
        "type": "cafe"
      }
    ]
  },
  {
    "place_id": "ChIJtZd-pl06UDURRzjxHv4A3Ww",
    "name": "BeBeBe Chocolatier Sikoku 今治店",
    "lat": 34.065065,
    "lng": 132.99838,
    "types": [
      "cafe",
      "grocery_or_supermarket",
      "store",
      "food",
      "point_of_interest",
      "establishment"
    ],
    "google_url": "https://www.google.com/maps/place/?q=place_id:ChIJtZd-pl06UDURRzjxHv4A3Ww",
    "seen_from": [
      {
        "rep_index": 34,
        "origin_type": "urban",
        "lat": 34.0658182,
        "lon": 132.9976758,
        "radius": 150,
        "type": "cafe"
      },
      {
        "rep_index": 730,
        "origin_type": "roadside",
        "lat": 34.0646348,
        "lon": 132.997656,
        "radius": 300,
        "type": "cafe"
      }
    ]
  },
  {
    "place_id": "ChIJH-gALc2HRTURy4U4Ffi28LY",
    "name": "隠れ家",
    "lat": 33.36266270000001,
    "lng": 132.5118182,
    "types": [
      "restaurant",
      "food",
      "point_of_interest",
      "establishment"
    ],
    "google_url": "https://www.google.com/maps/place/?q=place_id:ChIJH-gALc2HRTURy4U4Ffi28LY",
    "seen_from": [
      {
        "rep_index": 35,
        "origin_type": "urban",
        "lat": 33.3625533,
        "lon": 132.5109394,
        "radius": 150,
        "type": "restaurant"
      },
      {
        "rep_index": 764,
        "origin_type": "roadside",
        "lat": 33.3633022,
        "lon": 132.5124606,
        "radius": 300,
        "type": "restaurant"
      }
    ]
  },
  {
    "place_id": "ChIJS0C-JjOGRTURIbzDS7Jb7YU",
    "name": "炭火居酒屋 ごえもん",
    "lat": 33.3637613,
    "lng": 132.510815,
    "types": [
      "restaurant",
      "food",
      "point_of_interest",
      "establishment"
    ],
    "google_url": "https://www.google.com/maps/place/?q=place_id:ChIJS0C-JjOGRTURIbzDS7Jb7YU",
    "seen_from": [
      {
        "rep_index": 35,
        "origin_type": "urban",
        "lat": 33.3625533,
        "lon": 132.5109394,
        "radius": 150,
        "type": "restaurant"
      },
      {
        "rep_index": 764,
        "origin_type": "roadside",
        "lat": 33.3633022,
        "lon": 132.5124606,
        "radius": 300,
        "type": "restaurant"
      }
    ]
  },
  {
    "place_id": "ChIJ1-jm6pWHRTURmCOdhk1B4Xo",
    "name": "Terra",
    "lat": 33.36317599999999,
    "lng": 132.5103374,
    "types": [
      "restaurant",
      "food",
      "point_of_interest",
      "establishment"
    ],
    "google_url": "https://www.google.com/maps/place/?q=place_id:ChIJ1-jm6pWHRTURmCOdhk1B4Xo",
    "seen_from": [
      {
        "rep_index": 35,
        "origin_type": "urban",
        "lat": 33.3625533,
        "lon": 132.5109394,
        "radius": 150,
        "type": "restaurant"
      }
    ]
  },
  {
    "place_id": "ChIJcU7H1peHRTURv4nGfr8OxT0",
    "name": "Cozy's! Curry",
    "lat": 33.3631815,
    "lng": 132.5103399,
    "types": [
      "restaurant",
      "food",
      "point_of_interest",
      "establishment"
    ],
    "google_url": "https://www.google.com/maps/place/?q=place_id:ChIJcU7H1peHRTURv4nGfr8OxT0",
    "seen_from": [
      {
        "rep_index": 35,
        "origin_type": "urban",
        "lat": 33.3625533,
        "lon": 132.5109394,
        "radius": 150,
        "type": "restaurant"
      }
    ]
  },
  {
    "place_id": "ChIJAThUwmKHRTURFiuDd7LUB0A",
    "name": "らーめん笑福",
    "lat": 33.36315719999999,
    "lng": 132.5103008,
    "types": [
      "restaurant",
      "food",
      "point_of_interest",
      "establishment"
    ],
    "google_url": "https://www.google.com/maps/place/?q=place_id:ChIJAThUwmKHRTURFiuDd7LUB0A",
    "seen_from": [
      {
        "rep_index": 35,
        "origin_type": "urban",
        "lat": 33.3625533,
        "lon": 132.5109394,
        "radius": 150,
        "type": "restaurant"
      }
    ]
  },
  {
    "place_id": "ChIJVU-_1wqHRTUR6sHmdcdSDQE",
    "name": "咲咲-SAKU SAKU-",
    "lat": 33.36340899999999,
    "lng": 132.5105925,
    "types": [
      "restaurant",
      "food",
      "point_of_interest",
      "establishment"
    ],
    "google_url": "https://www.google.com/maps/place/?q=place_id:ChIJVU-_1wqHRTUR6sHmdcdSDQE",
    "seen_from": [
      {
        "rep_index": 35,
        "origin_type": "urban",
        "lat": 33.3625533,
        "lon": 132.5109394,
        "radius": 150,
        "type": "restaurant"
      },
      {
        "rep_index": 764,
        "origin_type": "roadside",
        "lat": 33.3633022,
        "lon": 132.5124606,
        "radius": 300,
        "type": "restaurant"
      }
    ]
  },
  {
    "place_id": "ChIJWffhWI6HRTURzab550uu7lk",
    "name": "ARISU",
    "lat": 33.3624808,
    "lng": 132.5120319,
    "types": [
      "restaurant",
      "food",
      "point_of_interest",
      "establishment"
    ],
    "google_url": "https://www.google.com/maps/place/?q=place_id:ChIJWffhWI6HRTURzab550uu7lk",
    "seen_from": [
      {
        "rep_index": 35,
        "origin_type": "urban",
        "lat": 33.3625533,
        "lon": 132.5109394,
        "radius": 150,
        "type": "restaurant"
      },
      {
        "rep_index": 764,
        "origin_type": "roadside",
        "lat": 33.3633022,
        "lon": 132.5124606,
        "radius": 300,
        "type": "restaurant"
      }
    ]
  },
  {
    "place_id": "ChIJ91hmKs2HRTURa17fQ9aKKM4",
    "name": "鉄板焼 美ゆき 宇和店",
    "lat": 33.36295820000001,
    "lng": 132.5119588,
    "types": [
      "restaurant",
      "food",
      "point_of_interest",
      "establishment"
    ],
    "google_url": "https://www.google.com/maps/place/?q=place_id:ChIJ91hmKs2HRTURa17fQ9aKKM4",
    "seen_from": [
      {
        "rep_index": 35,
        "origin_type": "urban",
        "lat": 33.3625533,
        "lon": 132.5109394,
        "radius": 150,
        "type": "restaurant"
      },
      {
        "rep_index": 764,
        "origin_type": "roadside",
        "lat": 33.3633022,
        "lon": 132.5124606,
        "radius": 300,
        "type": "restaurant"
      }
    ]
  },
  {
    "place_id": "ChIJMTq7URuHRTUR32QdP1HaD20",
    "name": "おいね",
    "lat": 33.3635979,
    "lng": 132.5103218,
    "types": [
      "restaurant",
      "food",
      "point_of_interest",
      "establishment"
    ],
    "google_url": "https://www.google.com/maps/place/?q=place_id:ChIJMTq7URuHRTUR32QdP1HaD20",
    "seen_from": [
      {
        "rep_index": 35,
        "origin_type": "urban",
        "lat": 33.3625533,
        "lon": 132.5109394,
        "radius": 150,
        "type": "restaurant"
      }
    ]
  },
  {
    "place_id": "ChIJK68VLzOGRTUR4I8rCJJEJh4",
    "name": "冨士廼家旅館",
    "lat": 33.3637717,
    "lng": 132.5111283,
    "types": [
      "lodging",
      "restaurant",
      "food",
      "point_of_interest",
      "establishment"
    ],
    "google_url": "https://www.google.com/maps/place/?q=place_id:ChIJK68VLzOGRTUR4I8rCJJEJh4",
    "seen_from": [
      {
        "rep_index": 35,
        "origin_type": "urban",
        "lat": 33.3625533,
        "lon": 132.5109394,
        "radius": 150,
        "type": "restaurant"
      },
      {
        "rep_index": 764,
        "origin_type": "roadside",
        "lat": 33.3633022,
        "lon": 132.5124606,
        "radius": 300,
        "type": "restaurant"
      }
    ]
  },
  {
    "place_id": "ChIJa8QlarWHRTURwEl_PDY0NFs",
    "name": "cafe れぷれ",
    "lat": 33.3633726,
    "lng": 132.5111296,
    "types": [
      "cafe",
      "food",
      "point_of_interest",
      "establishment"
    ],
    "google_url": "https://www.google.com/maps/place/?q=place_id:ChIJa8QlarWHRTURwEl_PDY0NFs",
    "seen_from": [
      {
        "rep_index": 35,
        "origin_type": "urban",
        "lat": 33.3625533,
        "lon": 132.5109394,
        "radius": 150,
        "type": "cafe"
      },
      {
        "rep_index": 764,
        "origin_type": "roadside",
        "lat": 33.3633022,
        "lon": 132.5124606,
        "radius": 300,
        "type": "cafe"
      }
    ]
  },
  {
    "place_id": "ChIJXbzzZACHRTUR70O1Ct9B8PQ",
    "name": "Sabote Brunch&Gallery（サボテ ブランチ＆ギャラリー）",
    "lat": 33.36340899999999,
    "lng": 132.5105925,
    "types": [
      "cafe",
      "store",
      "food",
      "point_of_interest",
      "establishment"
    ],
    "google_url": "https://www.google.com/maps/place/?q=place_id:ChIJXbzzZACHRTUR70O1Ct9B8PQ",
    "seen_from": [
      {
        "rep_index": 35,
        "origin_type": "urban",
        "lat": 33.3625533,
        "lon": 132.5109394,
        "radius": 150,
        "type": "cafe"
      },
      {
        "rep_index": 764,
        "origin_type": "roadside",
        "lat": 33.3633022,
        "lon": 132.5124606,
        "radius": 300,
        "type": "cafe"
      }
    ]
  },
  {
    "place_id": "ChIJkePkeM1hTzUR4Z8kQ1xJjJE",
    "name": "和歌山らーめん らぐまん",
    "lat": 33.222557,
    "lng": 132.56118,
    "types": [
      "restaurant",
      "food",
      "point_of_interest",
      "establishment"
    ],
    "google_url": "https://www.google.com/maps/place/?q=place_id:ChIJkePkeM1hTzUR4Z8kQ1xJjJE",
    "seen_from": [
      {
        "rep_index": 36,
        "origin_type": "urban",
        "lat": 33.2232315,
        "lon": 132.5606514,
        "radius": 150,
        "type": "restaurant"
      }
    ]
  },
  {
    "place_id": "ChIJU1vkeM1hTzURfuYrs6XP2ZY",
    "name": "球月",
    "lat": 33.22249839999999,
    "lng": 132.5612145,
    "types": [
      "restaurant",
      "food",
      "point_of_interest",
      "establishment"
    ],
    "google_url": "https://www.google.com/maps/place/?q=place_id:ChIJU1vkeM1hTzURfuYrs6XP2ZY",
    "seen_from": [
      {
        "rep_index": 36,
        "origin_type": "urban",
        "lat": 33.2232315,
        "lon": 132.5606514,
        "radius": 150,
        "type": "restaurant"
      }
    ]
  },
  {
    "place_id": "ChIJMSrkk81hTzURjD_YMJJk_PM",
    "name": "スナック亀",
    "lat": 33.22336000000001,
    "lng": 132.561591,
    "types": [
      "meal_takeaway",
      "restaurant",
      "food",
      "point_of_interest",
      "establishment"
    ],
    "google_url": "https://www.google.com/maps/place/?q=place_id:ChIJMSrkk81hTzURjD_YMJJk_PM",
    "seen_from": [
      {
        "rep_index": 36,
        "origin_type": "urban",
        "lat": 33.2232315,
        "lon": 132.5606514,
        "radius": 150,
        "type": "restaurant"
      }
    ]
  },
  {
    "place_id": "ChIJ4ZYrkc1hTzURqnUyRfNn4_c",
    "name": "カレーショップチャンドラ",
    "lat": 33.223215,
    "lng": 132.561668,
    "types": [
      "restaurant",
      "food",
      "point_of_interest",
      "establishment"
    ],
    "google_url": "https://www.google.com/maps/place/?q=place_id:ChIJ4ZYrkc1hTzURqnUyRfNn4_c",
    "seen_from": [
      {
        "rep_index": 36,
        "origin_type": "urban",
        "lat": 33.2232315,
        "lon": 132.5606514,
        "radius": 150,
        "type": "restaurant"
      }
    ]
  },
  {
    "place_id": "ChIJka-4kdJhTzURkAyq7-XyrdY",
    "name": "有限会社 中国亭",
    "lat": 33.2225813,
    "lng": 132.5598681,
    "types": [
      "restaurant",
      "food",
      "point_of_interest",
      "establishment"
    ],
    "google_url": "https://www.google.com/maps/place/?q=place_id:ChIJka-4kdJhTzURkAyq7-XyrdY",
    "seen_from": [
      {
        "rep_index": 36,
        "origin_type": "urban",
        "lat": 33.2232315,
        "lon": 132.5606514,
        "radius": 150,
        "type": "restaurant"
      },
      {
        "rep_index": 770,
        "origin_type": "roadside",
        "lat": 33.224239,
        "lon": 132.5584462,
        "radius": 300,
        "type": "restaurant"
      }
    ]
  },
  {
    "place_id": "ChIJtYLJfM1hTzURB2HqnNdUg_0",
    "name": "からあげや カリッジュ 宇和島・栄町港店",
    "lat": 33.2221983,
    "lng": 132.5609638,
    "types": [
      "restaurant",
      "food",
      "point_of_interest",
      "establishment"
    ],
    "google_url": "https://www.google.com/maps/place/?q=place_id:ChIJtYLJfM1hTzURB2HqnNdUg_0",
    "seen_from": [
      {
        "rep_index": 36,
        "origin_type": "urban",
        "lat": 33.2232315,
        "lon": 132.5606514,
        "radius": 150,
        "type": "restaurant"
      }
    ]
  },
  {
    "place_id": "ChIJHbUf12JhTzURmoGhO4HdhhY",
    "name": "[広島風お好み焼き] Bクイック 宇和島 お好み焼き",
    "lat": 33.2237449,
    "lng": 132.5595248,
    "types": [
      "restaurant",
      "food",
      "point_of_interest",
      "establishment"
    ],
    "google_url": "https://www.google.com/maps/place/?q=place_id:ChIJHbUf12JhTzURmoGhO4HdhhY",
    "seen_from": [
      {
        "rep_index": 36,
        "origin_type": "urban",
        "lat": 33.2232315,
        "lon": 132.5606514,
        "radius": 150,
        "type": "restaurant"
      },
      {
        "rep_index": 770,
        "origin_type": "roadside",
        "lat": 33.224239,
        "lon": 132.5584462,
        "radius": 300,
        "type": "restaurant"
      }
    ]
  },
  {
    "place_id": "ChIJmTmRC9JhTzURPWvKbhi_HZw",
    "name": "鳥勢",
    "lat": 33.2243183,
    "lng": 132.5605288,
    "types": [
      "restaurant",
      "food",
      "point_of_interest",
      "establishment"
    ],
    "google_url": "https://www.google.com/maps/place/?q=place_id:ChIJmTmRC9JhTzURPWvKbhi_HZw",
    "seen_from": [
      {
        "rep_index": 36,
        "origin_type": "urban",
        "lat": 33.2232315,
        "lon": 132.5606514,
        "radius": 150,
        "type": "restaurant"
      },
      {
        "rep_index": 770,
        "origin_type": "roadside",
        "lat": 33.224239,
        "lon": 132.5584462,
        "radius": 300,
        "type": "restaurant"
      }
    ]
  },
  {
    "place_id": "ChIJgbzsk9JhTzURqTEafcCEySc",
    "name": "牛ちゃん",
    "lat": 33.22245729999999,
    "lng": 132.5597663,
    "types": [
      "restaurant",
      "food",
      "point_of_interest",
      "establishment"
    ],
    "google_url": "https://www.google.com/maps/place/?q=place_id:ChIJgbzsk9JhTzURqTEafcCEySc",
    "seen_from": [
      {
        "rep_index": 36,
        "origin_type": "urban",
        "lat": 33.2232315,
        "lon": 132.5606514,
        "radius": 150,
        "type": "restaurant"
      },
      {
        "rep_index": 770,
        "origin_type": "roadside",
        "lat": 33.224239,
        "lon": 132.5584462,
        "radius": 300,
        "type": "restaurant"
      }
    ]
  },
  {
    "place_id": "ChIJHWhhkc1hTzURtik7PwMJHHg",
    "name": "セレナーデ",
    "lat": 33.22335979999999,
    "lng": 132.5615907,
    "types": [
      "cafe",
      "food",
      "point_of_interest",
      "establishment"
    ],
    "google_url": "https://www.google.com/maps/place/?q=place_id:ChIJHWhhkc1hTzURtik7PwMJHHg",
    "seen_from": [
      {
        "rep_index": 36,
        "origin_type": "urban",
        "lat": 33.2232315,
        "lon": 132.5606514,
        "radius": 150,
        "type": "cafe"
      }
    ]
  },
  {
    "place_id": "ChIJRYK-JuNVTzURQnZDTbKKjcA",
    "name": "お食事処 なにわ",
    "lat": 32.959602,
    "lng": 132.561618,
    "types": [
      "restaurant",
      "food",
      "point_of_interest",
      "establishment"
    ],
    "google_url": "https://www.google.com/maps/place/?q=place_id:ChIJRYK-JuNVTzURQnZDTbKKjcA",
    "seen_from": [
      {
        "rep_index": 39,
        "origin_type": "urban",
        "lat": 32.9603698,
        "lon": 132.5624807,
        "radius": 150,
        "type": "restaurant"
      },
      {
        "rep_index": 773,
        "origin_type": "roadside",
        "lat": 32.9595069,
        "lon": 132.5616259,
        "radius": 300,
        "type": "restaurant"
      }
    ]
  },
  {
    "place_id": "ChIJRYK-JuNVTzURynk4mYaUMiA",
    "name": "スナックアミーゴ",
    "lat": 32.9594639,
    "lng": 132.5616293,
    "types": [
      "meal_takeaway",
      "restaurant",
      "food",
      "point_of_interest",
      "establishment"
    ],
    "google_url": "https://www.google.com/maps/place/?q=place_id:ChIJRYK-JuNVTzURynk4mYaUMiA",
    "seen_from": [
      {
        "rep_index": 39,
        "origin_type": "urban",
        "lat": 32.9603698,
        "lon": 132.5624807,
        "radius": 150,
        "type": "restaurant"
      },
      {
        "rep_index": 773,
        "origin_type": "roadside",
        "lat": 32.9595069,
        "lon": 132.5616259,
        "radius": 300,
        "type": "restaurant"
      }
    ]
  },
  {
    "place_id": "ChIJs2usL-NVTzURAHG_xZzQrDk",
    "name": "華山",
    "lat": 32.9595384,
    "lng": 132.5612379,
    "types": [
      "cafe",
      "food",
      "point_of_interest",
      "store",
      "establishment"
    ],
    "google_url": "https://www.google.com/maps/place/?q=place_id:ChIJs2usL-NVTzURAHG_xZzQrDk",
    "seen_from": [
      {
        "rep_index": 39,
        "origin_type": "urban",
        "lat": 32.9603698,
        "lon": 132.5624807,
        "radius": 150,
        "type": "cafe"
      },
      {
        "rep_index": 773,
        "origin_type": "roadside",
        "lat": 32.9595069,
        "lon": 132.5616259,
        "radius": 300,
        "type": "cafe"
      }
    ]
  },
  {
    "place_id": "ChIJjQrM4HbyTzURL_zTUPcQ_7A",
    "name": "森店（もりみせ）食堂",
    "lat": 33.7588906,
    "lng": 132.7040355,
    "types": [
      "restaurant",
      "food",
      "point_of_interest",
      "establishment"
    ],
    "google_url": "https://www.google.com/maps/place/?q=place_id:ChIJjQrM4HbyTzURL_zTUPcQ_7A",
    "seen_from": [
      {
        "rep_index": 40,
        "origin_type": "urban",
        "lat": 33.7578962,
        "lon": 132.7039458,
        "radius": 150,
        "type": "restaurant"
      }
    ]
  },
  {
    "place_id": "ChIJs1hMKXfyTzUROeBGbdqVszo",
    "name": "まき",
    "lat": 33.758754,
    "lng": 132.703076,
    "types": [
      "restaurant",
      "food",
      "point_of_interest",
      "establishment"
    ],
    "google_url": "https://www.google.com/maps/place/?q=place_id:ChIJs1hMKXfyTzUROeBGbdqVszo",
    "seen_from": [
      {
        "rep_index": 40,
        "origin_type": "urban",
        "lat": 33.7578962,
        "lon": 132.7039458,
        "radius": 150,
        "type": "restaurant"
      }
    ]
  },
  {
    "place_id": "ChIJc0gV4HbyTzURcAY8s0Vj360",
    "name": "つみき",
    "lat": 33.7587046,
    "lng": 132.7040142,
    "types": [
      "cafe",
      "food",
      "point_of_interest",
      "establishment"
    ],
    "google_url": "https://www.google.com/maps/place/?q=place_id:ChIJc0gV4HbyTzURcAY8s0Vj360",
    "seen_from": [
      {
        "rep_index": 40,
        "origin_type": "urban",
        "lat": 33.7578962,
        "lon": 132.7039458,
        "radius": 150,
        "type": "cafe"
      },
      {
        "rep_index": 676,
        "origin_type": "roadside",
        "lat": 33.7560249,
        "lon": 132.7041217,
        "radius": 300,
        "type": "cafe"
      }
    ]
  },
  {
    "place_id": "ChIJLwheTXfyTzURofbJV4Ei9KM",
    "name": "リスク",
    "lat": 33.7574396,
    "lng": 132.7027928,
    "types": [
      "cafe",
      "food",
      "point_of_interest",
      "establishment"
    ],
    "google_url": "https://www.google.com/maps/place/?q=place_id:ChIJLwheTXfyTzURofbJV4Ei9KM",
    "seen_from": [
      {
        "rep_index": 40,
        "origin_type": "urban",
        "lat": 33.7578962,
        "lon": 132.7039458,
        "radius": 150,
        "type": "cafe"
      },
      {
        "rep_index": 676,
        "origin_type": "roadside",
        "lat": 33.7560249,
        "lon": 132.7041217,
        "radius": 300,
        "type": "cafe"
      }
    ]
  },
  {
    "place_id": "ChIJwZozENx_RTURavdtmYm3FNA",
    "name": "Bar Louis 【バー ルイス】",
    "lat": 33.5068475,
    "lng": 132.5453218,
    "types": [
      "bar",
      "restaurant",
      "food",
      "point_of_interest",
      "establishment"
    ],
    "google_url": "https://www.google.com/maps/place/?q=place_id:ChIJwZozENx_RTURavdtmYm3FNA",
    "seen_from": [
      {
        "rep_index": 41,
        "origin_type": "urban",
        "lat": 33.506488,
        "lon": 132.5446842,
        "radius": 150,
        "type": "restaurant"
      },
      {
        "rep_index": 686,
        "origin_type": "roadside",
        "lat": 33.5078592,
        "lon": 132.5426141,
        "radius": 300,
        "type": "restaurant"
      }
    ]
  },
  {
    "place_id": "ChIJLRaHEdx_RTUR_8cx8kiu20c",
    "name": "よねざわ",
    "lat": 33.506882,
    "lng": 132.545144,
    "types": [
      "restaurant",
      "food",
      "point_of_interest",
      "establishment"
    ],
    "google_url": "https://www.google.com/maps/place/?q=place_id:ChIJLRaHEdx_RTUR_8cx8kiu20c",
    "seen_from": [
      {
        "rep_index": 41,
        "origin_type": "urban",
        "lat": 33.506488,
        "lon": 132.5446842,
        "radius": 150,
        "type": "restaurant"
      },
      {
        "rep_index": 686,
        "origin_type": "roadside",
        "lat": 33.5078592,
        "lon": 132.5426141,
        "radius": 300,
        "type": "restaurant"
      }
    ]
  },
  {
    "place_id": "ChIJ8yu3Gtx_RTUROokhNkK6JOE",
    "name": "鶴八",
    "lat": 33.50682130000001,
    "lng": 132.5455028,
    "types": [
      "restaurant",
      "food",
      "point_of_interest",
      "establishment"
    ],
    "google_url": "https://www.google.com/maps/place/?q=place_id:ChIJ8yu3Gtx_RTUROokhNkK6JOE",
    "seen_from": [
      {
        "rep_index": 41,
        "origin_type": "urban",
        "lat": 33.506488,
        "lon": 132.5446842,
        "radius": 150,
        "type": "restaurant"
      },
      {
        "rep_index": 686,
        "origin_type": "roadside",
        "lat": 33.5078592,
        "lon": 132.5426141,
        "radius": 300,
        "type": "restaurant"
      }
    ]
  },
  {
    "place_id": "ChIJHfTMZ7F_RTURRHe3_l-CaoQ",
    "name": "ひぬるわ",
    "lat": 33.5069507,
    "lng": 132.5444772,
    "types": [
      "restaurant",
      "food",
      "point_of_interest",
      "establishment"
    ],
    "google_url": "https://www.google.com/maps/place/?q=place_id:ChIJHfTMZ7F_RTURRHe3_l-CaoQ",
    "seen_from": [
      {
        "rep_index": 41,
        "origin_type": "urban",
        "lat": 33.506488,
        "lon": 132.5446842,
        "radius": 150,
        "type": "restaurant"
      },
      {
        "rep_index": 686,
        "origin_type": "roadside",
        "lat": 33.5078592,
        "lon": 132.5426141,
        "radius": 300,
        "type": "restaurant"
      }
    ]
  },
  {
    "place_id": "ChIJWYHEnBR_RTURNKabszWTlIY",
    "name": "テイクアウト専門店 グルキチ",
    "lat": 33.506866,
    "lng": 132.5451043,
    "types": [
      "meal_takeaway",
      "store",
      "restaurant",
      "food",
      "point_of_interest",
      "establishment"
    ],
    "google_url": "https://www.google.com/maps/place/?q=place_id:ChIJWYHEnBR_RTURNKabszWTlIY",
    "seen_from": [
      {
        "rep_index": 41,
        "origin_type": "urban",
        "lat": 33.506488,
        "lon": 132.5446842,
        "radius": 150,
        "type": "restaurant"
      },
      {
        "rep_index": 686,
        "origin_type": "roadside",
        "lat": 33.5078592,
        "lon": 132.5426141,
        "radius": 300,
        "type": "restaurant"
      }
    ]
  },
  {
    "place_id": "ChIJd5oIXNx_RTURnVO6r_1XLIc",
    "name": "お好み焼 にしかわ",
    "lat": 33.5066039,
    "lng": 132.5439429,
    "types": [
      "restaurant",
      "food",
      "point_of_interest",
      "establishment"
    ],
    "google_url": "https://www.google.com/maps/place/?q=place_id:ChIJd5oIXNx_RTURnVO6r_1XLIc",
    "seen_from": [
      {
        "rep_index": 41,
        "origin_type": "urban",
        "lat": 33.506488,
        "lon": 132.5446842,
        "radius": 150,
        "type": "restaurant"
      },
      {
        "rep_index": 686,
        "origin_type": "roadside",
        "lat": 33.5078592,
        "lon": 132.5426141,
        "radius": 300,
        "type": "restaurant"
      }
    ]
  },
  {
    "place_id": "ChIJQxax99x_RTUR1_0iZJQvxtc",
    "name": "お食事処秀味",
    "lat": 33.506674,
    "lng": 132.54352,
    "types": [
      "meal_takeaway",
      "restaurant",
      "food",
      "point_of_interest",
      "establishment"
    ],
    "google_url": "https://www.google.com/maps/place/?q=place_id:ChIJQxax99x_RTUR1_0iZJQvxtc",
    "seen_from": [
      {
        "rep_index": 41,
        "origin_type": "urban",
        "lat": 33.506488,
        "lon": 132.5446842,
        "radius": 150,
        "type": "restaurant"
      },
      {
        "rep_index": 686,
        "origin_type": "roadside",
        "lat": 33.5078592,
        "lon": 132.5426141,
        "radius": 300,
        "type": "restaurant"
      }
    ]
  },
  {
    "place_id": "ChIJmbNsC9x_RTURu0j2vFnGg0A",
    "name": "大関",
    "lat": 33.5074788,
    "lng": 132.5449464,
    "types": [
      "restaurant",
      "food",
      "point_of_interest",
      "establishment"
    ],
    "google_url": "https://www.google.com/maps/place/?q=place_id:ChIJmbNsC9x_RTURu0j2vFnGg0A",
    "seen_from": [
      {
        "rep_index": 41,
        "origin_type": "urban",
        "lat": 33.506488,
        "lon": 132.5446842,
        "radius": 150,
        "type": "restaurant"
      },
      {
        "rep_index": 686,
        "origin_type": "roadside",
        "lat": 33.5078592,
        "lon": 132.5426141,
        "radius": 300,
        "type": "restaurant"
      }
    ]
  },
  {
    "place_id": "ChIJ9fH6edx_RTURDbCbIfb7Zno",
    "name": "村田文福老舗",
    "lat": 33.5077212,
    "lng": 132.5441863,
    "types": [
      "store",
      "restaurant",
      "food",
      "point_of_interest",
      "establishment"
    ],
    "google_url": "https://www.google.com/maps/place/?q=place_id:ChIJ9fH6edx_RTURDbCbIfb7Zno",
    "seen_from": [
      {
        "rep_index": 41,
        "origin_type": "urban",
        "lat": 33.506488,
        "lon": 132.5446842,
        "radius": 150,
        "type": "restaurant"
      },
      {
        "rep_index": 686,
        "origin_type": "roadside",
        "lat": 33.5078592,
        "lon": 132.5426141,
        "radius": 300,
        "type": "restaurant"
      }
    ]
  },
  {
    "place_id": "ChIJKZMoYm1_RTURg8zuToTbwas",
    "name": "まちなか珈琲焙煎所",
    "lat": 33.5074627,
    "lng": 132.5448063,
    "types": [
      "cafe",
      "food",
      "store",
      "point_of_interest",
      "establishment"
    ],
    "google_url": "https://www.google.com/maps/place/?q=place_id:ChIJKZMoYm1_RTURg8zuToTbwas",
    "seen_from": [
      {
        "rep_index": 41,
        "origin_type": "urban",
        "lat": 33.506488,
        "lon": 132.5446842,
        "radius": 150,
        "type": "cafe"
      },
      {
        "rep_index": 686,
        "origin_type": "roadside",
        "lat": 33.5078592,
        "lon": 132.5426141,
        "radius": 300,
        "type": "cafe"
      }
    ]
  },
  {
    "place_id": "ChIJhQtPRn2DRTURmdOv9W6yW3Q",
    "name": "暁",
    "lat": 33.4622136,
    "lng": 132.4236455,
    "types": [
      "restaurant",
      "food",
      "point_of_interest",
      "establishment"
    ],
    "google_url": "https://www.google.com/maps/place/?q=place_id:ChIJhQtPRn2DRTURmdOv9W6yW3Q",
    "seen_from": [
      {
        "rep_index": 42,
        "origin_type": "urban",
        "lat": 33.4627983,
        "lon": 132.4235208,
        "radius": 150,
        "type": "restaurant"
      }
    ]
  },
  {
    "place_id": "ChIJ4729HtuDRTURIs-lmiiQb-8",
    "name": "わくわく食堂",
    "lat": 33.4631778,
    "lng": 132.423303,
    "types": [
      "meal_takeaway",
      "restaurant",
      "food",
      "point_of_interest",
      "establishment"
    ],
    "google_url": "https://www.google.com/maps/place/?q=place_id:ChIJ4729HtuDRTURIs-lmiiQb-8",
    "seen_from": [
      {
        "rep_index": 42,
        "origin_type": "urban",
        "lat": 33.4627983,
        "lon": 132.4235208,
        "radius": 150,
        "type": "restaurant"
      }
    ]
  },
  {
    "place_id": "ChIJhQtPRn2DRTUR-CnzA55jbJA",
    "name": "鳥平",
    "lat": 33.4622202,
    "lng": 132.4231752,
    "types": [
      "restaurant",
      "food",
      "point_of_interest",
      "establishment"
    ],
    "google_url": "https://www.google.com/maps/place/?q=place_id:ChIJhQtPRn2DRTUR-CnzA55jbJA",
    "seen_from": [
      {
        "rep_index": 42,
        "origin_type": "urban",
        "lat": 33.4627983,
        "lon": 132.4235208,
        "radius": 150,
        "type": "restaurant"
      }
    ]
  },
  {
    "place_id": "ChIJkwVvp2KDRTURYLxLPRmI_TI",
    "name": "海里",
    "lat": 33.4627918,
    "lng": 132.4225165,
    "types": [
      "restaurant",
      "food",
      "point_of_interest",
      "establishment"
    ],
    "google_url": "https://www.google.com/maps/place/?q=place_id:ChIJkwVvp2KDRTURYLxLPRmI_TI",
    "seen_from": [
      {
        "rep_index": 42,
        "origin_type": "urban",
        "lat": 33.4627983,
        "lon": 132.4235208,
        "radius": 150,
        "type": "restaurant"
      }
    ]
  },
  {
    "place_id": "ChIJY0QKX32DRTURCyhWePvkCu8",
    "name": "メガラックス（ＭｅｇａＲｏｃｋ’ｓ）",
    "lat": 33.4621024,
    "lng": 132.4242465,
    "types": [
      "meal_takeaway",
      "restaurant",
      "food",
      "point_of_interest",
      "establishment"
    ],
    "google_url": "https://www.google.com/maps/place/?q=place_id:ChIJY0QKX32DRTURCyhWePvkCu8",
    "seen_from": [
      {
        "rep_index": 42,
        "origin_type": "urban",
        "lat": 33.4627983,
        "lon": 132.4235208,
        "radius": 150,
        "type": "restaurant"
      }
    ]
  },
  {
    "place_id": "ChIJ____rIKERTURH-yySt9eGKs",
    "name": "北浜大島屋",
    "lat": 33.46164530000001,
    "lng": 132.4235341,
    "types": [
      "restaurant",
      "food",
      "point_of_interest",
      "establishment"
    ],
    "google_url": "https://www.google.com/maps/place/?q=place_id:ChIJ____rIKERTURH-yySt9eGKs",
    "seen_from": [
      {
        "rep_index": 42,
        "origin_type": "urban",
        "lat": 33.4627983,
        "lon": 132.4235208,
        "radius": 150,
        "type": "restaurant"
      }
    ]
  },
  {
    "place_id": "ChIJu5jFZ52ERTURaKgf7jwUzM8",
    "name": "きみ",
    "lat": 33.462445,
    "lng": 132.421995,
    "types": [
      "restaurant",
      "food",
      "point_of_interest",
      "establishment"
    ],
    "google_url": "https://www.google.com/maps/place/?q=place_id:ChIJu5jFZ52ERTURaKgf7jwUzM8",
    "seen_from": [
      {
        "rep_index": 42,
        "origin_type": "urban",
        "lat": 33.4627983,
        "lon": 132.4235208,
        "radius": 150,
        "type": "restaurant"
      }
    ]
  },
  {
    "place_id": "ChIJ0Qh3sYKERTUR5F-MCg3m9hI",
    "name": "CAFE CHOCOLAT",
    "lat": 33.4615494,
    "lng": 132.4236863,
    "types": [
      "cafe",
      "food",
      "point_of_interest",
      "establishment"
    ],
    "google_url": "https://www.google.com/maps/place/?q=place_id:ChIJ0Qh3sYKERTUR5F-MCg3m9hI",
    "seen_from": [
      {
        "rep_index": 42,
        "origin_type": "urban",
        "lat": 33.4627983,
        "lon": 132.4235208,
        "radius": 150,
        "type": "cafe"
      },
      {
        "rep_index": 687,
        "origin_type": "roadside",
        "lat": 33.459524,
        "lon": 132.4237234,
        "radius": 300,
        "type": "cafe"
      }
    ]
  },
  {
    "place_id": "ChIJtbf3PB2bRTURPKGN0c78WwM",
    "name": "Ikata Dining 炭火焼 鶏勇",
    "lat": 33.48902710000001,
    "lng": 132.3556638,
    "types": [
      "cafe",
      "restaurant",
      "food",
      "point_of_interest",
      "establishment"
    ],
    "google_url": "https://www.google.com/maps/place/?q=place_id:ChIJtbf3PB2bRTURPKGN0c78WwM",
    "seen_from": [
      {
        "rep_index": 43,
        "origin_type": "urban",
        "lat": 33.4896014,
        "lon": 132.3560996,
        "radius": 150,
        "type": "restaurant"
      },
      {
        "rep_index": 43,
        "origin_type": "urban",
        "lat": 33.4896014,
        "lon": 132.3560996,
        "radius": 150,
        "type": "cafe"
      }
    ]
  },
  {
    "place_id": "ChIJ59ljqdGbRTUROvEpqbBuT4w",
    "name": "Restaurant Cafe in the NEWPORT",
    "lat": 33.4889642,
    "lng": 132.3556321,
    "types": [
      "cafe",
      "food",
      "point_of_interest",
      "establishment"
    ],
    "google_url": "https://www.google.com/maps/place/?q=place_id:ChIJ59ljqdGbRTUROvEpqbBuT4w",
    "seen_from": [
      {
        "rep_index": 43,
        "origin_type": "urban",
        "lat": 33.4896014,
        "lon": 132.3560996,
        "radius": 150,
        "type": "cafe"
      }
    ]
  },
  {
    "place_id": "ChIJ4xp8OrWFTzUR2LL12NhkFpo",
    "name": "寿屋",
    "lat": 33.5507023,
    "lng": 132.6505546,
    "types": [
      "restaurant",
      "food",
      "point_of_interest",
      "establishment"
    ],
    "google_url": "https://www.google.com/maps/place/?q=place_id:ChIJ4xp8OrWFTzUR2LL12NhkFpo",
    "seen_from": [
      {
        "rep_index": 44,
        "origin_type": "urban",
        "lat": 33.5495987,
        "lon": 132.6500056,
        "radius": 150,
        "type": "restaurant"
      }
    ]
  },
  {
    "place_id": "ChIJ29S8yEqETzURxVM0AtOKeZc",
    "name": "居酒屋 いなほ",
    "lat": 33.5496455,
    "lng": 132.6503639,
    "types": [
      "restaurant",
      "food",
      "point_of_interest",
      "establishment"
    ],
    "google_url": "https://www.google.com/maps/place/?q=place_id:ChIJ29S8yEqETzURxVM0AtOKeZc",
    "seen_from": [
      {
        "rep_index": 44,
        "origin_type": "urban",
        "lat": 33.5495987,
        "lon": 132.6500056,
        "radius": 150,
        "type": "restaurant"
      }
    ]
  },
  {
    "place_id": "ChIJ8RberUqETzURBpBvGC76QEE",
    "name": "居酒屋 どんどん",
    "lat": 33.5503177,
    "lng": 132.6494339,
    "types": [
      "restaurant",
      "food",
      "point_of_interest",
      "establishment"
    ],
    "google_url": "https://www.google.com/maps/place/?q=place_id:ChIJ8RberUqETzURBpBvGC76QEE",
    "seen_from": [
      {
        "rep_index": 44,
        "origin_type": "urban",
        "lat": 33.5495987,
        "lon": 132.6500056,
        "radius": 150,
        "type": "restaurant"
      }
    ]
  },
  {
    "place_id": "ChIJQ2GwS7WFTzURyaeVXtAejZU",
    "name": "焼肉 ありもと",
    "lat": 33.550569,
    "lng": 132.649951,
    "types": [
      "restaurant",
      "food",
      "point_of_interest",
      "establishment"
    ],
    "google_url": "https://www.google.com/maps/place/?q=place_id:ChIJQ2GwS7WFTzURyaeVXtAejZU",
    "seen_from": [
      {
        "rep_index": 44,
        "origin_type": "urban",
        "lat": 33.5495987,
        "lon": 132.6500056,
        "radius": 150,
        "type": "restaurant"
      }
    ]
  },
  {
    "place_id": "ChIJC7OuxUqETzURbgkPssGyH7I",
    "name": "なるみ",
    "lat": 33.54956479999999,
    "lng": 132.6504774,
    "types": [
      "restaurant",
      "food",
      "point_of_interest",
      "establishment"
    ],
    "google_url": "https://www.google.com/maps/place/?q=place_id:ChIJC7OuxUqETzURbgkPssGyH7I",
    "seen_from": [
      {
        "rep_index": 44,
        "origin_type": "urban",
        "lat": 33.5495987,
        "lon": 132.6500056,
        "radius": 150,
        "type": "restaurant"
      }
    ]
  },
  {
    "place_id": "ChIJW16FfDWETzURc-GCtnnd5bQ",
    "name": "串よし",
    "lat": 33.549114,
    "lng": 132.648668,
    "types": [
      "restaurant",
      "food",
      "point_of_interest",
      "establishment"
    ],
    "google_url": "https://www.google.com/maps/place/?q=place_id:ChIJW16FfDWETzURc-GCtnnd5bQ",
    "seen_from": [
      {
        "rep_index": 44,
        "origin_type": "urban",
        "lat": 33.5495987,
        "lon": 132.6500056,
        "radius": 150,
        "type": "restaurant"
      }
    ]
  },
  {
    "place_id": "ChIJz48tOrWFTzURh3PN93rrVuo",
    "name": "石焼ビビンバ・しゃぶしゃぶ「がっちゃん家」",
    "lat": 33.55083330000001,
    "lng": 132.6505556,
    "types": [
      "restaurant",
      "food",
      "point_of_interest",
      "establishment"
    ],
    "google_url": "https://www.google.com/maps/place/?q=place_id:ChIJz48tOrWFTzURh3PN93rrVuo",
    "seen_from": [
      {
        "rep_index": 44,
        "origin_type": "urban",
        "lat": 33.5495987,
        "lon": 132.6500056,
        "radius": 150,
        "type": "restaurant"
      }
    ]
  },
  {
    "place_id": "ChIJPxquxUqETzURFfhtMVdNS-c",
    "name": "ひまつぶし",
    "lat": 33.5494958,
    "lng": 132.6505965,
    "types": [
      "cafe",
      "food",
      "point_of_interest",
      "store",
      "establishment"
    ],
    "google_url": "https://www.google.com/maps/place/?q=place_id:ChIJPxquxUqETzURFfhtMVdNS-c",
    "seen_from": [
      {
        "rep_index": 44,
        "origin_type": "urban",
        "lat": 33.5495987,
        "lon": 132.6500056,
        "radius": 150,
        "type": "cafe"
      }
    ]
  },
  {
    "place_id": "ChIJQQOvX1-4RTURNna-LL4keoA",
    "name": "しらす食堂 はなはな",
    "lat": 33.3908022,
    "lng": 132.1170819,
    "types": [
      "travel_agency",
      "restaurant",
      "food",
      "point_of_interest",
      "establishment"
    ],
    "google_url": "https://www.google.com/maps/place/?q=place_id:ChIJQQOvX1-4RTURNna-LL4keoA",
    "seen_from": [
      {
        "rep_index": 47,
        "origin_type": "urban",
        "lat": 33.3903867,
        "lon": 132.117568,
        "radius": 150,
        "type": "restaurant"
      },
      {
        "rep_index": 812,
        "origin_type": "roadside",
        "lat": 33.3910731,
        "lon": 132.1173213,
        "radius": 300,
        "type": "restaurant"
      }
    ]
  },
  {
    "place_id": "ChIJny_BwvW4RTURwz-bnL0XYCM",
    "name": "清海 じゃこ天部",
    "lat": 33.3908529,
    "lng": 132.1189124,
    "types": [
      "restaurant",
      "food",
      "point_of_interest",
      "store",
      "establishment"
    ],
    "google_url": "https://www.google.com/maps/place/?q=place_id:ChIJny_BwvW4RTURwz-bnL0XYCM",
    "seen_from": [
      {
        "rep_index": 47,
        "origin_type": "urban",
        "lat": 33.3903867,
        "lon": 132.117568,
        "radius": 150,
        "type": "restaurant"
      },
      {
        "rep_index": 812,
        "origin_type": "roadside",
        "lat": 33.3910731,
        "lon": 132.1173213,
        "radius": 300,
        "type": "restaurant"
      }
    ]
  },
  {
    "place_id": "ChIJsWlnK8e5RTUR_UUZpFDz4ik",
    "name": "木と樹",
    "lat": 33.39096339999999,
    "lng": 132.1172686,
    "types": [
      "cafe",
      "food",
      "point_of_interest",
      "establishment"
    ],
    "google_url": "https://www.google.com/maps/place/?q=place_id:ChIJsWlnK8e5RTUR_UUZpFDz4ik",
    "seen_from": [
      {
        "rep_index": 47,
        "origin_type": "urban",
        "lat": 33.3903867,
        "lon": 132.117568,
        "radius": 150,
        "type": "cafe"
      },
      {
        "rep_index": 812,
        "origin_type": "roadside",
        "lat": 33.3910731,
        "lon": 132.1173213,
        "radius": 300,
        "type": "cafe"
      }
    ]
  },
  {
    "place_id": "ChIJE-JywIK5RTURQLz5fE0zHA0",
    "name": "コーヒーひかる",
    "lat": 33.3911658,
    "lng": 132.1187365,
    "types": [
      "cafe",
      "food",
      "point_of_interest",
      "store",
      "establishment"
    ],
    "google_url": "https://www.google.com/maps/place/?q=place_id:ChIJE-JywIK5RTURQLz5fE0zHA0",
    "seen_from": [
      {
        "rep_index": 47,
        "origin_type": "urban",
        "lat": 33.3903867,
        "lon": 132.117568,
        "radius": 150,
        "type": "cafe"
      },
      {
        "rep_index": 812,
        "origin_type": "roadside",
        "lat": 33.3910731,
        "lon": 132.1173213,
        "radius": 300,
        "type": "cafe"
      }
    ]
  },
  {
    "place_id": "ChIJfTDO5Ws6UDURbffbe1qkUI4",
    "name": "ユウタ",
    "lat": 34.0701153,
    "lng": 133.0039701,
    "types": [
      "restaurant",
      "food",
      "point_of_interest",
      "establishment"
    ],
    "google_url": "https://www.google.com/maps/place/?q=place_id:ChIJfTDO5Ws6UDURbffbe1qkUI4",
    "seen_from": [
      {
        "rep_index": 48,
        "origin_type": "urban",
        "lat": 34.0699838,
        "lon": 133.0048984,
        "radius": 150,
        "type": "restaurant"
      },
      {
        "rep_index": 736,
        "origin_type": "roadside",
        "lat": 34.0683555,
        "lon": 133.0035366,
        "radius": 300,
        "type": "restaurant"
      }
    ]
  },
  {
    "place_id": "ChIJXWNsCGw6UDUR7RRYmY8rTx8",
    "name": "ビアテラス ターミナル 02",
    "lat": 34.0697336,
    "lng": 133.005232,
    "types": [
      "restaurant",
      "food",
      "point_of_interest",
      "establishment"
    ],
    "google_url": "https://www.google.com/maps/place/?q=place_id:ChIJXWNsCGw6UDUR7RRYmY8rTx8",
    "seen_from": [
      {
        "rep_index": 48,
        "origin_type": "urban",
        "lat": 34.0699838,
        "lon": 133.0048984,
        "radius": 150,
        "type": "restaurant"
      }
    ]
  },
  {
    "place_id": "ChIJr-CR4ms6UDURt3iV1AXxiXU",
    "name": "海舟亭",
    "lat": 34.0696957,
    "lng": 133.0041897,
    "types": [
      "restaurant",
      "food",
      "point_of_interest",
      "establishment"
    ],
    "google_url": "https://www.google.com/maps/place/?q=place_id:ChIJr-CR4ms6UDURt3iV1AXxiXU",
    "seen_from": [
      {
        "rep_index": 48,
        "origin_type": "urban",
        "lat": 34.0699838,
        "lon": 133.0048984,
        "radius": 150,
        "type": "restaurant"
      },
      {
        "rep_index": 736,
        "origin_type": "roadside",
        "lat": 34.0683555,
        "lon": 133.0035366,
        "radius": 300,
        "type": "restaurant"
      }
    ]
  },
  {
    "place_id": "ChIJlTzTQ2k6UDURT6CHJj12BVc",
    "name": "無垢",
    "lat": 34.0689688,
    "lng": 133.0038587,
    "types": [
      "restaurant",
      "food",
      "point_of_interest",
      "establishment"
    ],
    "google_url": "https://www.google.com/maps/place/?q=place_id:ChIJlTzTQ2k6UDURT6CHJj12BVc",
    "seen_from": [
      {
        "rep_index": 48,
        "origin_type": "urban",
        "lat": 34.0699838,
        "lon": 133.0048984,
        "radius": 150,
        "type": "restaurant"
      },
      {
        "rep_index": 736,
        "origin_type": "roadside",
        "lat": 34.0683555,
        "lon": 133.0035366,
        "radius": 300,
        "type": "restaurant"
      }
    ]
  },
  {
    "place_id": "ChIJLS3raGk6UDUR392pNtySZJM",
    "name": "ステーキハウス芹",
    "lat": 34.0692945,
    "lng": 133.003493,
    "types": [
      "restaurant",
      "food",
      "point_of_interest",
      "establishment"
    ],
    "google_url": "https://www.google.com/maps/place/?q=place_id:ChIJLS3raGk6UDUR392pNtySZJM",
    "seen_from": [
      {
        "rep_index": 48,
        "origin_type": "urban",
        "lat": 34.0699838,
        "lon": 133.0048984,
        "radius": 150,
        "type": "restaurant"
      },
      {
        "rep_index": 736,
        "origin_type": "roadside",
        "lat": 34.0683555,
        "lon": 133.0035366,
        "radius": 300,
        "type": "restaurant"
      }
    ]
  },
  {
    "place_id": "ChIJjzrCB2w6UDURQZbQfAa_3tg",
    "name": "コーヒースタンド ターミナル 01",
    "lat": 34.0698563,
    "lng": 133.0049475,
    "types": [
      "cafe",
      "food",
      "point_of_interest",
      "store",
      "establishment"
    ],
    "google_url": "https://www.google.com/maps/place/?q=place_id:ChIJjzrCB2w6UDURQZbQfAa_3tg",
    "seen_from": [
      {
        "rep_index": 48,
        "origin_type": "urban",
        "lat": 34.0699838,
        "lon": 133.0048984,
        "radius": 150,
        "type": "cafe"
      },
      {
        "rep_index": 736,
        "origin_type": "roadside",
        "lat": 34.0683555,
        "lon": 133.0035366,
        "radius": 300,
        "type": "cafe"
      }
    ]
  },
  {
    "place_id": "ChIJecMbL146UDURst4cTGql51w",
    "name": "フォルテシモ",
    "lat": 34.069627,
    "lng": 133.0044314,
    "types": [
      "cafe",
      "food",
      "point_of_interest",
      "store",
      "establishment"
    ],
    "google_url": "https://www.google.com/maps/place/?q=place_id:ChIJecMbL146UDURst4cTGql51w",
    "seen_from": [
      {
        "rep_index": 48,
        "origin_type": "urban",
        "lat": 34.0699838,
        "lon": 133.0048984,
        "radius": 150,
        "type": "cafe"
      },
      {
        "rep_index": 736,
        "origin_type": "roadside",
        "lat": 34.0683555,
        "lon": 133.0035366,
        "radius": 300,
        "type": "cafe"
      }
    ]
  },
  {
    "place_id": "ChIJdSNiWGk6UDURosxTSOgOODU",
    "name": "セピア",
    "lat": 34.069678,
    "lng": 133.0040893,
    "types": [
      "cafe",
      "food",
      "point_of_interest",
      "establishment"
    ],
    "google_url": "https://www.google.com/maps/place/?q=place_id:ChIJdSNiWGk6UDURosxTSOgOODU",
    "seen_from": [
      {
        "rep_index": 48,
        "origin_type": "urban",
        "lat": 34.0699838,
        "lon": 133.0048984,
        "radius": 150,
        "type": "cafe"
      },
      {
        "rep_index": 736,
        "origin_type": "roadside",
        "lat": 34.0683555,
        "lon": 133.0035366,
        "radius": 300,
        "type": "cafe"
      }
    ]
  },
  {
    "place_id": "ChIJBVyg4Gs6UDURerSszHxAuYg",
    "name": "カフェ・ド・クィーンベル",
    "lat": 34.0700838,
    "lng": 133.0036935,
    "types": [
      "cafe",
      "food",
      "point_of_interest",
      "establishment"
    ],
    "google_url": "https://www.google.com/maps/place/?q=place_id:ChIJBVyg4Gs6UDURerSszHxAuYg",
    "seen_from": [
      {
        "rep_index": 48,
        "origin_type": "urban",
        "lat": 34.0699838,
        "lon": 133.0048984,
        "radius": 150,
        "type": "cafe"
      },
      {
        "rep_index": 736,
        "origin_type": "roadside",
        "lat": 34.0683555,
        "lon": 133.0035366,
        "radius": 300,
        "type": "cafe"
      }
    ]
  },
  {
    "place_id": "ChIJ8UAzTmk6UDURjH59dcfr0Yw",
    "name": "早朝喫茶ガーネット",
    "lat": 34.0689291,
    "lng": 133.0044613,
    "types": [
      "cafe",
      "food",
      "point_of_interest",
      "establishment"
    ],
    "google_url": "https://www.google.com/maps/place/?q=place_id:ChIJ8UAzTmk6UDURjH59dcfr0Yw",
    "seen_from": [
      {
        "rep_index": 48,
        "origin_type": "urban",
        "lat": 34.0699838,
        "lon": 133.0048984,
        "radius": 150,
        "type": "cafe"
      },
      {
        "rep_index": 736,
        "origin_type": "roadside",
        "lat": 34.0683555,
        "lon": 133.0035366,
        "radius": 300,
        "type": "cafe"
      }
    ]
  },
  {
    "place_id": "ChIJjQTCTWk6UDURY2RWFpjjBKg",
    "name": "早朝喫茶 マリン",
    "lat": 34.0688216,
    "lng": 133.0046643,
    "types": [
      "cafe",
      "food",
      "point_of_interest",
      "store",
      "establishment"
    ],
    "google_url": "https://www.google.com/maps/place/?q=place_id:ChIJjQTCTWk6UDURY2RWFpjjBKg",
    "seen_from": [
      {
        "rep_index": 48,
        "origin_type": "urban",
        "lat": 34.0699838,
        "lon": 133.0048984,
        "radius": 150,
        "type": "cafe"
      },
      {
        "rep_index": 736,
        "origin_type": "roadside",
        "lat": 34.0683555,
        "lon": 133.0035366,
        "radius": 300,
        "type": "cafe"
      }
    ]
  },
  {
    "place_id": "ChIJ55GKqVyETzURdhm3f27-x5w",
    "name": "レスト喫茶 榎",
    "lat": 33.53272990000001,
    "lng": 132.6590242,
    "types": [
      "cafe",
      "store",
      "food",
      "point_of_interest",
      "establishment"
    ],
    "google_url": "https://www.google.com/maps/place/?q=place_id:ChIJ55GKqVyETzURdhm3f27-x5w",
    "seen_from": [
      {
        "rep_index": 49,
        "origin_type": "urban",
        "lat": 33.532903,
        "lon": 132.658074,
        "radius": 150,
        "type": "cafe"
      }
    ]
  },
  {
    "place_id": "ChIJVw9PirzlTzURDwOiDOZQFCw",
    "name": "焼肉 食道園",
    "lat": 33.8553988,
    "lng": 132.758778,
    "types": [
      "restaurant",
      "food",
      "point_of_interest",
      "establishment"
    ],
    "google_url": "https://www.google.com/maps/place/?q=place_id:ChIJVw9PirzlTzURDwOiDOZQFCw",
    "seen_from": [
      {
        "rep_index": 51,
        "origin_type": "urban",
        "lat": 33.8549384,
        "lon": 132.7585874,
        "radius": 150,
        "type": "restaurant"
      }
    ]
  },
  {
    "place_id": "ChIJKYy6-rzlTzUROs0r4z_wgtU",
    "name": "愛媛県中華料理生活衛生同業組合",
    "lat": 33.8546001,
    "lng": 132.7582649,
    "types": [
      "restaurant",
      "food",
      "point_of_interest",
      "establishment"
    ],
    "google_url": "https://www.google.com/maps/place/?q=place_id:ChIJKYy6-rzlTzUROs0r4z_wgtU",
    "seen_from": [
      {
        "rep_index": 51,
        "origin_type": "urban",
        "lat": 33.8549384,
        "lon": 132.7585874,
        "radius": 150,
        "type": "restaurant"
      }
    ]
  },
  {
    "place_id": "ChIJxT8SVLzlTzURKuSQ__LVqc0",
    "name": "ピザロイ 本町店",
    "lat": 33.8541826,
    "lng": 132.759139,
    "types": [
      "meal_delivery",
      "meal_takeaway",
      "restaurant",
      "food",
      "point_of_interest",
      "establishment"
    ],
    "google_url": "https://www.google.com/maps/place/?q=place_id:ChIJxT8SVLzlTzURKuSQ__LVqc0",
    "seen_from": [
      {
        "rep_index": 51,
        "origin_type": "urban",
        "lat": 33.8549384,
        "lon": 132.7585874,
        "radius": 150,
        "type": "restaurant"
      }
    ]
  },
  {
    "place_id": "ChIJHyFGq73lTzURmV7onFkcm5c",
    "name": "大黒屋 本町店",
    "lat": 33.8538624,
    "lng": 132.7591618,
    "types": [
      "restaurant",
      "food",
      "point_of_interest",
      "establishment"
    ],
    "google_url": "https://www.google.com/maps/place/?q=place_id:ChIJHyFGq73lTzURmV7onFkcm5c",
    "seen_from": [
      {
        "rep_index": 51,
        "origin_type": "urban",
        "lat": 33.8549384,
        "lon": 132.7585874,
        "radius": 150,
        "type": "restaurant"
      }
    ]
  },
  {
    "place_id": "ChIJYw_lirzlTzURJ-8Casw2FiA",
    "name": "炭焼酒房嬉楽家",
    "lat": 33.85530500000001,
    "lng": 132.758804,
    "types": [
      "restaurant",
      "food",
      "point_of_interest",
      "establishment"
    ],
    "google_url": "https://www.google.com/maps/place/?q=place_id:ChIJYw_lirzlTzURJ-8Casw2FiA",
    "seen_from": [
      {
        "rep_index": 51,
        "origin_type": "urban",
        "lat": 33.8549384,
        "lon": 132.7585874,
        "radius": 150,
        "type": "restaurant"
      }
    ]
  },
  {
    "place_id": "ChIJZ8DNSGXlTzURPK-pe2No7wM",
    "name": "創作居酒屋 歩（あゆむ）",
    "lat": 33.8554866,
    "lng": 132.7588131,
    "types": [
      "restaurant",
      "food",
      "point_of_interest",
      "establishment"
    ],
    "google_url": "https://www.google.com/maps/place/?q=place_id:ChIJZ8DNSGXlTzURPK-pe2No7wM",
    "seen_from": [
      {
        "rep_index": 51,
        "origin_type": "urban",
        "lat": 33.8549384,
        "lon": 132.7585874,
        "radius": 150,
        "type": "restaurant"
      }
    ]
  },