[
  {
    "name": "Shrine",
    "lat": 34.5175154,
    "lng": 134.3037104,
    "category": "place_of_worship",
    "place_id": "d985cdb521bcab4a5b2b61b87518fa540632ff36"
  },
  {
    "name": "銚子渓自然動物園 お猿の国",
    "lat": 34.5153878,
    "lng": 134.242635,
    "category": "zoo",
    "place_id": "a30a2c003656d5ff3d4cbd53dbf7e336a5729e68"
  },
  {
    "name": "宝生院 54",
    "lat": 34.4932721,
    "lng": 134.1971027,
    "category": "place_of_worship",
    "place_id": "dc7303480b022c1deb37beb1f66f4cb4b4205243"
  },
  {
    "name": "瓶浦神社",
    "lat": 34.2320189,
    "lng": 134.6354096,
    "category": "place_of_worship",
    "place_id": "a5036979ea8fc28e163efc231ecd955caa6f4576"
  },
  {
    "name": "阿波十郎兵衛屋敷",
    "lat": 34.0914976,
    "lng": 134.5840471,
    "category": "museum",
    "place_id": "74689e63a12a2624c0ed7bc90c976fee0843a040"
  },
  {
    "name": "諏訪神社",
    "lat": 34.149552,
    "lng": 134.6134856,
    "category": "place_of_worship",
    "place_id": "2c0f328e8e58357bd838441f3cc63dbee0cf9013"
  },
  {
    "name": "四所神社",
    "lat": 34.0707961,
    "lng": 134.5697131,
    "category": "place_of_worship",
    "place_id": "f79bb217676e9af2162d10d8e91cb9f0ab4dc096"
  },
  {
    "name": "東照寺",
    "lat": 34.0712239,
    "lng": 134.5692006,
    "category": "place_of_worship",
    "place_id": "09d201bd2f9d1f3533a3950f14af4792c3b90210"
  },
  {
    "name": "慈光寺",
    "lat": 34.0710361,
    "lng": 134.5659904,
    "category": "place_of_worship",
    "place_id": "82f94b0ca175bd522550e6391b4b600641d103d3"
  },
  {
    "name": "関寛斎像",
    "lat": 34.0731032,
    "lng": 134.5619245,
    "category": "memorial",
    "place_id": "15512aa318f8d35d410f9e27c374c6196cb2097f"
  },
  {
    "name": "海野十三の碑",
    "lat": 34.070292,
    "lng": 134.5696556,
    "category": "memorial",
    "place_id": "f880d1b13d902e9bfa866a3a29b805c0b2d2ad1f"
  },
  {
    "name": "徳島県立鳥居龍蔵記念博物館",
    "lat": 34.0399267,
    "lng": 134.5262343,
    "category": "museum",
    "place_id": "3155678cbfe5a9b0b79c868907c57c5983d448a2"
  },
  {
    "name": "八坂神社",
    "lat": 34.03547,
    "lng": 134.3537694,
    "category": "place_of_worship",
    "place_id": "343958c8a938a1747c05bfc04b234db51ff52a37"
  },
  {
    "name": "徳円寺",
    "lat": 33.957499,
    "lng": 134.4571918,
    "category": "place_of_worship",
    "place_id": "5097f86b31c38ecf5952f0e3bcc4be7a0a0b9a19"
  },
  {
    "name": "六社神社",
    "lat": 33.9651562,
    "lng": 134.4610337,
    "category": "place_of_worship",
    "place_id": "93358cfbc1b37b957de53c91049630020c4d252a"
  },
  {
    "name": "ネイチャーセンター（徳島県立佐那河内いきものふれあいの里）",
    "lat": 33.9583534,
    "lng": 134.4230908,
    "category": "museum",
    "place_id": "7ded4974073e7fd7f17b14900facd846b26da0e5"
  },
  {
    "name": "日峰神社",
    "lat": 34.0222443,
    "lng": 134.5817496,
    "category": "place_of_worship",
    "place_id": "53f80797418ec15abb9177b0d09e53c01312bcb5"
  },
  {
    "name": "偶野大権現",
    "lat": 34.0918309,
    "lng": 134.4718234,
    "category": "place_of_worship",
    "place_id": "3050bdc022302c8eb5675b269daea389145d65c8"
  },
  {
    "name": "鑓場古戦場",
    "lat": 34.1045203,
    "lng": 134.4782454,
    "category": "memorial",
    "place_id": "23b997b5197c27d7469c0e596c233627226b5cb2"
  },
  {
    "name": "川井峠白い神様",
    "lat": 33.9423565,
    "lng": 134.2280484,
    "category": "place_of_worship",
    "place_id": "2f0dd56ad991516d933937a1f1934903129d3674"
  },
  {
    "name": "川上神社",
    "lat": 33.8959301,
    "lng": 134.1546224,
    "category": "place_of_worship",
    "place_id": "0a7233b11bb04576236b49dd5924dc3e05367d9e"
  },
  {
    "name": "装束石",
    "lat": 33.8655589,
    "lng": 133.944112,
    "category": "memorial",
    "place_id": "f79d9d110ca20595894d6325c3aa19e8c0c2931b"
  },
  {
    "name": "第18番札所 恩山寺",
    "lat": 33.9860981,
    "lng": 134.5778614,
    "category": "place_of_worship",
    "place_id": "4df3182618435e33276f1950827fb3dac883fdb9"
  },
  {
    "name": "第19番札所 立江寺",
    "lat": 33.9678148,
    "lng": 134.6058371,
    "category": "place_of_worship",
    "place_id": "58894af1de5d662ee0fecc52523e76f0153ec8e0"
  },
  {
    "name": "第20番札所 鶴林寺",
    "lat": 33.9141272,
    "lng": 134.505258,
    "category": "place_of_worship",
    "place_id": "fee3ae8e1f7627df750a930d6d85bef4a7d85538"
  },
  {
    "name": "第22番札所 平等寺",
    "lat": 33.8521418,
    "lng": 134.5823363,
    "category": "place_of_worship",
    "place_id": "dc0862b76743fb501608728e2c9fd2209fd5a671"
  },
  {
    "name": "恵比寿神社",
    "lat": 33.7356815,
    "lng": 134.5507357,
    "category": "place_of_worship",
    "place_id": "acb60c1f7e4a06b0a042046482e5e9ba30cd3118"
  },
  {
    "name": "つづら堂 (Tsuzura-do)",
    "lat": 33.8972779,
    "lng": 134.0739652,
    "category": "place_of_worship",
    "place_id": "feec4093c8b2c2b209fb59ef058e6236cd354a68"
  },
  {
    "name": "第88番札所 大窪寺 (Okubo-ji)",
    "lat": 34.1913639,
    "lng": 134.2068728,
    "category": "place_of_worship",
    "place_id": "422529dc4743235bd99ca104c91bde7fa2b6f2af"
  },
  {
    "name": "第11番札所 藤井寺",
    "lat": 34.0516692,
    "lng": 134.3485336,
    "category": "place_of_worship",
    "place_id": "a4ed905332a998260d0d7b2c7ec25b5d23a80f6d"
  },
  {
    "name": "第10番札所 切幡寺",
    "lat": 34.1077257,
    "lng": 134.3043032,
    "category": "place_of_worship",
    "place_id": "4c83ba8bc6cb09c79d44cf2573067ce5e9fbd610"
  },
  {
    "name": "宍喰浦の化石漣痕",
    "lat": 33.5607153,
    "lng": 134.3105369,
    "category": "monument",
    "place_id": "f14da948c47c0773fb15c967659b81b3792e81bb"
  },
  {
    "name": "第12番札所 焼山寺",
    "lat": 33.985057,
    "lng": 134.310411,
    "category": "place_of_worship",
    "place_id": "e492d7148d5e9093ce79902a6fa0ce85c3893ae2"
  },
  {
    "name": "第02番札所 極楽寺",
    "lat": 34.1561604,
    "lng": 134.4902123,
    "category": "place_of_worship",
    "place_id": "ce513600859b832c67575b4feeb19574ea53f038"
  },
  {
    "name": "第03番札所 金泉寺",
    "lat": 34.147453,
    "lng": 134.4685024,
    "category": "place_of_worship",
    "place_id": "35840ff3c6a1de1e07b383007a38179d2d9d85f5"
  },
  {
    "name": "第05番札所 地蔵寺",
    "lat": 34.1371936,
    "lng": 134.4319428,
    "category": "place_of_worship",
    "place_id": "d5c71dd602fc66f44bec0ec60ab6e4315619a85f"
  },
  {
    "name": "淡島神社",
    "lat": 33.9219992,
    "lng": 134.6994008,
    "category": "place_of_worship",
    "place_id": "9070aba52026e7eecc0305958a737cb77029086a"
  },
  {
    "name": "第26番札所 金剛頂寺",
    "lat": 33.3070734,
    "lng": 134.1228508,
    "category": "place_of_worship",
    "place_id": "8fe66f721bf6dec1e74c36e8aaf370a5d4fb8243"
  },
  {
    "name": "第25番札所 津照寺",
    "lat": 33.2882369,
    "lng": 134.1482763,
    "category": "place_of_worship",
    "place_id": "533a2b17265f68f0162ebf67ce6f7ef8e0a6b707"
  },
  {
    "name": "第24番札所 最御崎寺",
    "lat": 33.2490846,
    "lng": 134.1759439,
    "category": "place_of_worship",
    "place_id": "04463aaa05e8c87589d87250908d3814699b8a23"
  },
  {
    "name": "第23番札所 薬王寺",
    "lat": 33.7322973,
    "lng": 134.5275924,
    "category": "place_of_worship",
    "place_id": "e20525ef968915a9276db5eb751bf2cc4023e73e"
  },
  {
    "name": "山神社",
    "lat": 33.748548,
    "lng": 134.5401089,
    "category": "place_of_worship",
    "place_id": "cb5ffeb9901c66ea6f145c2ab200392462e45196"
  },
  {
    "name": "白鳥神社",
    "lat": 33.7728786,
    "lng": 134.5800428,
    "category": "place_of_worship",
    "place_id": "14eca2ffef3390230afb8142e012fb3c39fbce89"
  },
  {
    "name": "別格01 大山寺",
    "lat": 34.1592474,
    "lng": 134.3995553,
    "category": "place_of_worship",
    "place_id": "d3502d4181544802c6c411785cd1587351347521"
  },
  {
    "name": "第06番札所 安楽寺",
    "lat": 34.1181096,
    "lng": 134.3884768,
    "category": "place_of_worship",
    "place_id": "424bfd760ac60e8081277fa8b005d141ebc56956"
  },
  {
    "name": "第07番札所 十楽寺",
    "lat": 34.1206876,
    "lng": 134.3780307,
    "category": "place_of_worship",
    "place_id": "8763ce4596ccd0210cbc1f208b9a74e496f1974a"
  },
  {
    "name": "第08番札所 熊谷寺",
    "lat": 34.1227308,
    "lng": 134.3400517,
    "category": "place_of_worship",
    "place_id": "038d5e063125f75d58848dd013e0e1b2cb6581cf"
  },
  {
    "name": "第09番札所 法輪寺 (Horin-ji)",
    "lat": 34.1040985,
    "lng": 134.3336021,
    "category": "place_of_worship",
    "place_id": "eb1e80075ddee165d8fa1e03082bf63a4017ad26"
  },
  {
    "name": "御所神社",
    "lat": 34.1637622,
    "lng": 134.2011533,
    "category": "place_of_worship",
    "place_id": "42c73303cc33ee8e578a362991604f9422e9ed0a"
  },
  {
    "name": "柳水庵",
    "lat": 34.0161827,
    "lng": 134.3304967,
    "category": "place_of_worship",
    "place_id": "73e379ee5773d112891b119600c7aaa46d30aaa7"
  },
  {
    "name": "第14番札所 常楽寺",
    "lat": 34.0503581,
    "lng": 134.4759521,
    "category": "place_of_worship",
    "place_id": "6bd15e49619b88c2d8d6117a83d2f555af013e82"
  },
  {
    "name": "第17番札所 井戸寺",
    "lat": 34.0851717,
    "lng": 134.4854986,
    "category": "place_of_worship",
    "place_id": "08655f7898ea459720efdba8c77462fa710abe9b"
  },
  {
    "name": "金磯弁才天",
    "lat": 33.9962091,
    "lng": 134.6075484,
    "category": "place_of_worship",
    "place_id": "38e5cb3d56da176d85ecc4a73bc06723b65bdfad"
  },
  {
    "name": "王子神社",
    "lat": 33.9114767,
    "lng": 134.6113548,
    "category": "place_of_worship",
    "place_id": "04facbfa11673e1189d27567b9c1c092219e07de"
  },
  {
    "name": "八鉾神社",
    "lat": 33.9201919,
    "lng": 134.6164805,
    "category": "place_of_worship",
    "place_id": "768a04e4da3b46168b8a4aaa6f5de32d2beca373"
  },
  {
    "name": "明谷梅林",
    "lat": 33.8903923,
    "lng": 134.5875693,
    "category": "attraction",
    "place_id": "198deceb42a7be3ac2d0f6059457713f76295ca7"
  },
  {
    "name": "たちばな観音",
    "lat": 33.8773335,
    "lng": 134.638889,
    "category": "monument",
    "place_id": "3084199bdb76fbe358ed4bb3ff080a521f72bc31"
  },
  {
    "name": "持福院",
    "lat": 33.8624352,
    "lng": 134.522255,
    "category": "place_of_worship",
    "place_id": "8ee2338345d8c06956b327f2ca47413d00d79242"
  },
  {
    "name": "轟神社拝殿",
    "lat": 33.8472504,
    "lng": 134.5788091,
    "category": "place_of_worship",
    "place_id": "b272855335ffbc6cd038ca3377cc57a50f975a46"
  },
  {
    "name": "釼尾神社",
    "lat": 33.5332927,
    "lng": 133.6336017,
    "category": "place_of_worship",
    "place_id": "e914819566bd513c60b1c34dce6cd444bc555cae"
  },
  {
    "name": "神峯神社",
    "lat": 33.4686967,
    "lng": 133.9752755,
    "category": "place_of_worship",
    "place_id": "ec392d6ab6d9d68540e87852e9220513a35e92ca"
  },
  {
    "name": "第27番札所 神峯寺",
    "lat": 33.4675303,
    "lng": 133.9749882,
    "category": "place_of_worship",
    "place_id": "2a2855491e01941fee427cb15a5751bf162d9c8d"
  },
  {
    "name": "第60番札所 横峰寺",
    "lat": 33.8376181,
    "lng": 133.1110909,
    "category": "place_of_worship",
    "place_id": "48e8365b38b7f7d97125b67ad18738c5cca7bad6"
  },
  {
    "name": "第61番札所 香園寺",
    "lat": 33.893603,
    "lng": 133.1034109,
    "category": "place_of_worship",
    "place_id": "4ff5fdbb44cb28b9fff4e9eb7876f7f9471a1c27"
  },
  {
    "name": "第63番札所 吉祥寺",
    "lat": 33.8957732,
    "lng": 133.1291511,
    "category": "place_of_worship",
    "place_id": "066a470b1e20717612a8ac4b80f0df896938799a"
  },
  {
    "name": "第64番札所 前神寺",
    "lat": 33.8903607,
    "lng": 133.1605615,
    "category": "place_of_worship",
    "place_id": "6cee700734920bdb1177899c5ecd61ece673d57e"
  },
  {
    "name": "第62番札所 宝寿寺",
    "lat": 33.8973011,
    "lng": 133.1151159,
    "category": "place_of_worship",
    "place_id": "aa2c2d07b1e9497c9292ae24ac966be576037fc2"
  },
  {
    "name": "八幡神社",
    "lat": 34.0096238,
    "lng": 134.5272196,
    "category": "place_of_worship",
    "place_id": "a4a270cb7fee88f3f246d429da242fbdc489a73c"
  },
  {
    "name": "渋野丸山古墳",
    "lat": 34.0093574,
    "lng": 134.5291054,
    "category": "ruins",
    "place_id": "99537ccc3cb71c398479c38d4113f4ef60c2bc35"
  },
  {
    "name": "観音堂",
    "lat": 34.0046063,
    "lng": 134.5508848,
    "category": "monument",
    "place_id": "6b61797d9dca2c29fa839a0fdb840d27aa420d5b"
  },
  {
    "name": "如意輪寺",
    "lat": 33.9706117,
    "lng": 134.5155779,
    "category": "place_of_worship",
    "place_id": "a5f08e6014151d9c424f81fbc8f21334785956e3"
  },
  {
    "name": "天津神社",
    "lat": 33.9623441,
    "lng": 134.5095513,
    "category": "place_of_worship",
    "place_id": "b28fb9e2f90a96ff84a195f6f62ab529df74deea"
  },
  {
    "name": "星谷寺",
    "lat": 33.9486326,
    "lng": 134.5146695,
    "category": "place_of_worship",
    "place_id": "bf049f9ae3dd923164ac39f31d843a7773c39c34"
  },
  {
    "name": "別格03 慈眼寺",
    "lat": 33.9402321,
    "lng": 134.4307338,
    "category": "place_of_worship",
    "place_id": "6db5bedc9ed23af528dab60787e8139da4dcc657"
  },
  {
    "name": "八幡神社",
    "lat": 33.9681439,
    "lng": 134.5436244,
    "category": "place_of_worship",
    "place_id": "b9f2d5bead4b550cc6c29fc154ec585f992ea786"
  },
  {
    "name": "岩船神社",
    "lat": 33.9147422,
    "lng": 134.4776939,
    "category": "place_of_worship",
    "place_id": "b4517979520332d97f79762e60c82f63266ea243"
  },
  {
    "name": "秋葉神社",
    "lat": 33.9219585,
    "lng": 134.4384851,
    "category": "place_of_worship",
    "place_id": "3ad1b401b0f1e2bb731943fbcaf2a7b4cddce6e0"
  },
  {
    "name": "松尾川温泉",
    "lat": 33.9586399,
    "lng": 133.8208795,
    "category": "attraction",
    "place_id": "358e37a38f479b325cd4ca38862e17095d62367a"
  },
  {
    "name": "伏石神社",
    "lat": 34.3117752,
    "lng": 134.051919,
    "category": "place_of_worship",
    "place_id": "26a8d941f17ceb5027c4768a41843248e9d58831"
  },
  {
    "name": "香南楽湯",
    "lat": 34.239603,
    "lng": 134.0072282,
    "category": "attraction",
    "place_id": "10314f17fd4a63cad2dc4fbebbb1479dabe5b73d"
  },
  {
    "name": "長法寺",
    "lat": 34.1967927,
    "lng": 133.8263027,
    "category": "place_of_worship",
    "place_id": "e615a53e8ae176bd088ed177d5c4626a586a6eae"
  },
  {
    "name": "金山神社",
    "lat": 34.3315976,
    "lng": 134.0504345,
    "category": "place_of_worship",
    "place_id": "b423dbe10888183fa82cd47b32893e4ffef1cfd1"
  },
  {
    "name": "美郷ほたる館",
    "lat": 34.0223453,
    "lng": 134.2622564,
    "category": "attraction",
    "place_id": "2499c340165e077f2827f3ac7d1f7872f859cec7"
  },
  {
    "name": "ディープシーワールド",
    "lat": 33.258319,
    "lng": 134.1827886,
    "category": "attraction",
    "place_id": "880317d02057b049481a75eb9d1685d2fa98ca89"
  },
  {
    "name": "松井神社",
    "lat": 34.3512169,
    "lng": 134.1336043,
    "category": "place_of_worship",
    "place_id": "cc7f0d197c24bd732335ae188821003b569de399"
  },
  {
    "name": "栄稲荷神社",
    "lat": 34.1899909,
    "lng": 133.8199115,
    "category": "place_of_worship",
    "place_id": "23312a8131ac96e741055074eb2bf5e015dcad35"
  },
  {
    "name": "甲浦八幡宮",
    "lat": 33.5472871,
    "lng": 134.2877081,
    "category": "place_of_worship",
    "place_id": "c72c7bcd45a069d22a777253d7685f2b213106f1"
  },
  {
    "name": "第50番札所 繁多寺 (Hanta-ji)",
    "lat": 33.827983,
    "lng": 132.8042637,
    "category": "place_of_worship",
    "place_id": "27bd526810caed58e88498c3ba9234211110a00e"
  },
  {
    "name": "東雲神社",
    "lat": 33.8449143,
    "lng": 132.7707693,
    "category": "place_of_worship",
    "place_id": "f0d1cb7953da488c120f1677e0b3adf143b7748a"
  },
  {
    "name": "松山城",
    "lat": 33.845651,
    "lng": 132.7657463,
    "category": "castle",
    "place_id": "fe40cf35f115452c85b2925600ee2ac9f4558635"
  },
  {
    "name": "東台神社",
    "lat": 33.944652,
    "lng": 133.3172581,
    "category": "place_of_worship",
    "place_id": "65db2fadf23c0ffca8bda3e776a4bfbf9dbaf3d1"
  },
  {
    "name": "戎神社",
    "lat": 34.3597913,
    "lng": 133.8531302,
    "category": "place_of_worship",
    "place_id": "cb0b82c9ab7638e5060abc89156f869391a9e7be"
  },
  {
    "name": "苗羽小学校田浦分校",
    "lat": 34.4522676,
    "lng": 134.2861096,
    "category": "attraction",
    "place_id": "4ccddbc0f4bdcd5b1cb1bfd97acf3de535b8acd4"
  },
  {
    "name": "第81番札所 白峯寺",
    "lat": 34.3344627,
    "lng": 133.9270371,
    "category": "place_of_worship",
    "place_id": "06e8b2cc63ff9149505b9a1bfe4adf2a0ff1d6de"
  },
  {
    "name": "塩竃神社",
    "lat": 34.3368065,
    "lng": 134.1557671,
    "category": "place_of_worship",
    "place_id": "9f9a4eb2e924534f3cf5ee472b187898a76945f9"
  },
  {
    "name": "楠大荒神",
    "lat": 34.3271574,
    "lng": 134.0482494,
    "category": "place_of_worship",
    "place_id": "7f0619a866570f22eceee3e88a7be4a0601600bc"
  },
  {
    "name": "神木神社",
    "lat": 34.3300814,
    "lng": 134.0485883,
    "category": "place_of_worship",
    "place_id": "9a677137b77de4ac32250088388ee91ecf2e5d72"
  },
  {
    "name": "多賀神社",
    "lat": 34.3377742,
    "lng": 134.0585629,
    "category": "place_of_worship",
    "place_id": "a02c6d22f544bb97229b0c73ba233fd4a9a8b9e1"
  },
  {
    "name": "カトリック桜町教会",
    "lat": 34.3307446,
    "lng": 134.0515396,
    "category": "place_of_worship",
    "place_id": "c79fdaf993a021ab6e0608c07a2a00bba90e697e"
  },
  {
    "name": "第33番札所 雪渓寺",
    "lat": 33.5008563,
    "lng": 133.5431302,
    "category": "place_of_worship",
    "place_id": "18eb8dc9ca9f16c89087bd3ed6faaace2bbff860"
  },
  {
    "name": "稲荷神社",
    "lat": 34.1230063,
    "lng": 134.1276592,
    "category": "place_of_worship",
    "place_id": "63481a0f1306f8ce95320ae70a0e50782031818b"
  },
  {
    "name": "美霞洞温泉",
    "lat": 34.0970168,
    "lng": 134.0037941,
    "category": "attraction",
    "place_id": "1ec8a084a884755ca225900264b7c0301494840c"
  },
  {
    "name": "土器川源流",
    "lat": 34.0743312,
    "lng": 133.9849031,
    "category": "memorial",
    "place_id": "c7005200fd9381ca3a1e8ac3dc41a482f4c0ad6d"
  },
  {
    "name": "三頭神社",
    "lat": 34.0753363,
    "lng": 134.0415545,
    "category": "place_of_worship",
    "place_id": "5d46d862131f6bceeb0c6375386e607b1f426e1f"
  },
  {
    "name": "第34番札所 種間寺",
    "lat": 33.4917044,
    "lng": 133.4876666,
    "category": "place_of_worship",
    "place_id": "3e57ce325570eb8b0e53c176c6db22d3684afb2f"
  },
  {
    "name": "中野天満神社",
    "lat": 34.3382029,
    "lng": 134.0436558,
    "category": "place_of_worship",
    "place_id": "237da8432225e270c646d7977f1c2238b954072a"
  },
  {
    "name": "第41番札所 龍光寺",
    "lat": 33.2952023,
    "lng": 132.5986435,
    "category": "place_of_worship",
    "place_id": "9befd35b578c333d3eec85bf477c2ee7ef75a422"
  },
  {
    "name": "第42番札所 佛木寺 仏木寺",
    "lat": 33.3105599,
    "lng": 132.5814592,
    "category": "place_of_worship",
    "place_id": "3ce2d37bd9213e25ed94b993578e02a3f700e9a1"
  },
  {
    "name": "第43番札所 明石寺",
    "lat": 33.3692339,
    "lng": 132.5190216,
    "category": "place_of_worship",
    "place_id": "6fa6dbb335290d724b4dabf83650dfafe76a0814"
  },
  {
    "name": "直島銭湯",
    "lat": 34.4579858,
    "lng": 133.9751323,
    "category": "attraction",
    "place_id": "3d89f90e62dba256b50ade6851a9626ba15c7db2"
  },
  {
    "name": "熊野神社",
    "lat": 34.3208588,
    "lng": 134.0634702,
    "category": "place_of_worship",
    "place_id": "a0c6f5104e1d14cd045dfb47c427ecc21ae0ef1e"
  },
  {
    "name": "第80番札所 国分寺",
    "lat": 34.3030901,
    "lng": 133.9441627,
    "category": "place_of_worship",
    "place_id": "c83fcac1e6d892735d88e0d5d6c4161fae51f800"
  },
  {
    "name": "清水神社",
    "lat": 34.284756,
    "lng": 134.0843497,
    "category": "place_of_worship",
    "place_id": "3f2a0abd84934de71ebdc29fea2a74ff9a865cca"
  },
  {
    "name": "四国最西端の碑",
    "lat": 33.3429973,
    "lng": 132.0147609,
    "category": "monument",
    "place_id": "00666079cd670e883e788dfad4ab9b571aa1e900"
  },
  {
    "name": "藤ノ木神社",
    "lat": 34.3281385,
    "lng": 134.048128,
    "category": "place_of_worship",
    "place_id": "759f61bb5644dbea11d6bb7a7835fea89a67d47a"
  },
  {
    "name": "宇佐八幡宮",
    "lat": 34.3465106,
    "lng": 133.9973428,
    "category": "place_of_worship",
    "place_id": "1d03f4715494d092051d83aba7d22eeaf29d24b2"
  },
  {
    "name": "奥の湯温泉",
    "lat": 34.1305439,
    "lng": 134.0753996,
    "category": "attraction",
    "place_id": "e308ebe32b4a350840bc6c065fb2bb0153200c36"
  },
  {
    "name": "立石神社",
    "lat": 34.3114474,
    "lng": 134.0578383,
    "category": "place_of_worship",
    "place_id": "8007bc9b0fd9b5ff7e9fc3bfec80d600e33d3b72"
  },
  {
    "name": "鹿浦越のランプロファイヤ岩脈",
    "lat": 34.2592649,
    "lng": 134.3754584,
    "category": "attraction",
    "place_id": "98dc1a66034f421228685e46e3d34a36a4c8e288"
  },
  {
    "name": "第72番札所 曼荼羅寺",
    "lat": 34.2233323,
    "lng": 133.7503177,
    "category": "place_of_worship",
    "place_id": "70bfb457cf1de58c641d8cb12510a73b50425903"
  },
  {
    "name": "第73番札所 出釈迦寺",
    "lat": 34.2191392,
    "lng": 133.7502513,
    "category": "place_of_worship",
    "place_id": "092aa95d3985be05cbfac9a4998d4a4d563ea54e"
  },
  {
    "name": "別格17 神野寺",
    "lat": 34.1639793,
    "lng": 133.8647259,
    "category": "place_of_worship",
    "place_id": "389ffe998309fd710850c8fbd0ae8c24ef12cc1e"
  },
  {
    "name": "神野神社",
    "lat": 34.1659015,
    "lng": 133.86574,
    "category": "place_of_worship",
    "place_id": "4c538c528f248fb723873e19c44042e499e9be1d"
  },
  {
    "name": "神野神社御旅所",
    "lat": 34.1645069,
    "lng": 133.8652492,
    "category": "place_of_worship",
    "place_id": "1f1914ccc474922bf2831dea7a1cd49dae6e3846"
  },
  {
    "name": "第87番札所 長尾寺 (Nagao-ji)",
    "lat": 34.2666753,
    "lng": 134.1717088,
    "category": "place_of_worship",
    "place_id": "7d443e7fe573a2d3d4b8721112afc358bf68c48c"
  },
  {
    "name": "第32番札所 禅師峰寺",
    "lat": 33.5267092,
    "lng": 133.6113941,
    "category": "place_of_worship",
    "place_id": "3f5705b0505aca5a90e80487df9cafdd178aebc1"
  },
  {
    "name": "新宮神社",
    "lat": 33.5317387,
    "lng": 133.6203944,
    "category": "place_of_worship",
    "place_id": "ca0b09f94208152925c551160a6f30b54baa97ac"
  },
  {
    "name": "琴平神社",
    "lat": 33.5361486,
    "lng": 133.6373312,
    "category": "place_of_worship",
    "place_id": "c3993c6f63d5faffad0b256497ccf9acc58c7bed"
  },
  {
    "name": "石土神社",
    "lat": 33.5259474,
    "lng": 133.6052605,
    "category": "place_of_worship",
    "place_id": "5aa3012d437e20a59c80f5f4d76115ba047dca8c"
  },
  {
    "name": "坂本龍馬銅像",
    "lat": 33.4985909,
    "lng": 133.575476,
    "category": "memorial",
    "place_id": "210ab0beb77bd08960a7eabf17fe81029344ff60"
  },
  {
    "name": "紫雲出山遺跡館",
    "lat": 34.2437731,
    "lng": 133.596252,
    "category": "museum",
    "place_id": "b970d9bf65f15251f5d28ce8e459bf9accb69289"
  },
  {
    "name": "丸亀城",
    "lat": 34.2860216,
    "lng": 133.8001009,
    "category": "castle",
    "place_id": "8ed9ecaf07b324f642cec51762d707145095e53e"
  },
  {
    "name": "武市半平太像",
    "lat": 33.4075243,
    "lng": 133.3881156,
    "category": "memorial",
    "place_id": "fd152925795f0ec68538b3467a4bef9d93f77644"
  },
  {
    "name": "上母神社",
    "lat": 33.4525933,
    "lng": 133.444202,
    "category": "place_of_worship",
    "place_id": "563a228e439ea74342a3ac49ca6d1a6ea2a715d4"
  },
  {
    "name": "四国最南端",
    "lat": 32.725634,
    "lng": 133.0194866,
    "category": "monument",
    "place_id": "6cdbd64bb1a7bbeb87c5d6082baffe9d3591c9fe"
  },
  {
    "name": "龍宮厳",
    "lat": 33.2463855,
    "lng": 134.1777284,
    "category": "place_of_worship",
    "place_id": "a0e9358af65ad640671b108e937c31a9347caa15"
  },
  {
    "name": "四国最東端",
    "lat": 33.8352463,
    "lng": 134.7474646,
    "category": "monument",
    "place_id": "263db3d28a0d9dc6ff53b467af543d5e6f4a2a8d"
  },
  {
    "name": "イサム・ノグチ庭園美術館 (Isamu Noguchi Garden Museum)",
    "lat": 34.3549874,
    "lng": 134.1250669,
    "category": "museum",
    "place_id": "2183ee523140f25ca40c6cb6c1a667c52cae1da7"
  },
  {
    "name": "若宮八幡宮",
    "lat": 33.5619995,
    "lng": 133.5226681,
    "category": "place_of_worship",
    "place_id": "21800d102ce82cdcf7e99e6a5511d7d00c25dd05"
  },
  {
    "name": "八坂神社",
    "lat": 34.3180997,
    "lng": 134.0713328,
    "category": "place_of_worship",
    "place_id": "ec2bad7a338806e2db0e82a14725d252c4bd75ed"
  },
  {
    "name": "八坂神社御旅所",
    "lat": 34.3156225,
    "lng": 134.0708363,
    "category": "place_of_worship",
    "place_id": "8a1203131a91f4656707274e76fa2cdfc0288598"
  },
  {
    "name": "第71番札所 弥谷寺",
    "lat": 34.230281,
    "lng": 133.7241876,
    "category": "place_of_worship",
    "place_id": "aa7cd6c3aaaeeb0a6bfbfa9bdc60e9d3a0493ca0"
  },
  {
    "name": "モラエス館",
    "lat": 34.067114,
    "lng": 134.5377515,
    "category": "museum",
    "place_id": "636f34359fc46e5960bc415adcee3ef344e73007"
  },
  {
    "name": "上板町立歴史民俗資料館",
    "lat": 34.131945,
    "lng": 134.395903,
    "category": "museum",
    "place_id": "0f2e5f6f3b10817f95ac7bb0bc54e865e2cc8331"
  },
  {
    "name": "大鳴門橋架橋記念館エディ",
    "lat": 34.2349395,
    "lng": 134.6400972,
    "category": "museum",
    "place_id": "c2a17986b5c4b8443af313c68ea620053e983e60"
  },
  {
    "name": "平家屋敷民俗資料館",
    "lat": 33.882825,
    "lng": 133.780867,
    "category": "museum",
    "place_id": "de7a84383b05f1be250fec747a8d6d126ca20223"
  },
  {
    "name": "徳島市天狗久資料館",
    "lat": 34.072388,
    "lng": 134.492808,
    "category": "museum",
    "place_id": "4c065b3e1bd848dd4ed2d2860b2cd3a847835479"
  },
  {
    "name": "徳島市立考古資料館",
    "lat": 34.060711,
    "lng": 134.469186,
    "category": "museum",
    "place_id": "3a99569ac011278219c7e7a234632282d971169e"
  },
  {
    "name": "徳島県立あすたむらんど子ども科学館",
    "lat": 34.1534022,
    "lng": 134.4411706,
    "category": "museum",
    "place_id": "687e1e5c730119de514d04b9356d613a377a6481"
  },
  {
    "name": "徳島県立近代美術館",
    "lat": 34.039814,
    "lng": 134.52671,
    "category": "museum",
    "place_id": "a3c7acd8f924e9d6c5363090b8d2543edbdd4d1b"
  },
  {
    "name": "徳島県立鳥居記念博物館",
    "lat": 34.178303,
    "lng": 134.616903,
    "category": "museum",
    "place_id": "a9b36fe06524d853e6aa4863856723e0262676c6"
  },
  {
    "name": "徳島県郷土文化会館阿波木偶資料館",
    "lat": 34.0751578,
    "lng": 134.5461154,
    "category": "museum",
    "place_id": "2b35761798c5ec707978e1edbff8f779683a215d"
  },
  {
    "name": "旧永井家庄屋屋敷",
    "lat": 34.035721,
    "lng": 134.062135,
    "category": "museum",
    "place_id": "6bb02dfc4ba36a9224d22521eb944b98e475cbe2"
  },
  {
    "name": "東みよし町立歴史民俗資料館",
    "lat": 34.0361141,
    "lng": 133.9495788,
    "category": "museum",
    "place_id": "5e15463d5115b93f9a77413c263b5964ccf45c6e"
  },
  {
    "name": "相生森林美術館",
    "lat": 33.797678,
    "lng": 134.452302,
    "category": "museum",
    "place_id": "800d8140d17d8e0ecca36a69fd42209bcaa3d611"
  },
  {
    "name": "美馬郷土博物館",
    "lat": 34.051795,
    "lng": 134.060055,
    "category": "museum",
    "place_id": "80b13a38f06a9ef66566ac16368f80168b8a89e5"
  },
  {
    "name": "藍住町歴史館・藍の館",
    "lat": 34.1151134,
    "lng": 134.4825017,
    "category": "museum",
    "place_id": "245c0e4da052c30b675276899e2432c1646418ed"
  },
  {
    "name": "那賀町木沢歴史民俗資料館",
    "lat": 33.830047,
    "lng": 134.297128,
    "category": "museum",
    "place_id": "1363f2774ad1a096fac47a1a3fbb2a7d67c3deac"
  },
  {
    "name": "阿南市立阿波公方・民俗資料館",
    "lat": 33.952023,
    "lng": 134.655229,
    "category": "museum",
    "place_id": "2372722e020c5b6037ccdf2ce3b249bb2d5a661a"
  },
  {
    "name": "阿波おどり会館・阿波おどりミュージアム",
    "lat": 34.0701077,
    "lng": 134.5449026,
    "category": "museum",
    "place_id": "42b8e2d110c3e4851423fe012a74b66b4dfb8293"
  },
  {
    "name": "阿波和紙伝統産業会館",
    "lat": 34.045969,
    "lng": 134.2309488,
    "category": "museum",
    "place_id": "10e8abed9e685f9d4ad944ad904903206ef15671"
  },
  {
    "name": "阿波市立土成郷土歴史館",
    "lat": 34.1149741,
    "lng": 134.3401271,
    "category": "museum",
    "place_id": "83f04a5f49fb580b90208f1966144fbdcdd3661e"
  },
  {
    "name": "阿波市立市場歴史民俗資料館",
    "lat": 34.094273,
    "lng": 134.284953,
    "category": "museum",
    "place_id": "9909264382e227a2aac7fc604b851f8c6fbad52a"
  },
  {
    "name": "阿波池田うだつの家・阿波池田たばこ資料館",
    "lat": 34.0294665,
    "lng": 133.8089918,
    "category": "museum",
    "place_id": "56fad2cd8192e34a94c32461c99dbccad0ceaee4"
  },
  {
    "name": "ミウラート・ヴィレッジ（三浦美術館）",
    "lat": 33.898554,
    "lng": 132.753643,
    "category": "museum",
    "place_id": "253accd1b1a749119727d69a6f98e6b969088874"
  },
  {
    "name": "上黒岩岩陰遺跡考古館",
    "lat": 33.6178272,
    "lng": 132.9603091,
    "category": "museum",
    "place_id": "b8c13830f747c569328c9c7b0f9e0678c37622d7"
  },
  {
    "name": "中岡慎太郎館",
    "lat": 33.456357,
    "lng": 134.057308,
    "category": "museum",
    "place_id": "d0b5fb0029823dd8b231f8f19f97889509e13889"
  },
  {
    "name": "丸亀市猪熊弦一郎現代美術館",
    "lat": 34.2912754,
    "lng": 133.7923195,
    "category": "museum",
    "place_id": "dadabcb18086f6af4c3bff4512511cf2af3e3a04"
  },
  {
    "name": "丸亀市立資料館",
    "lat": 34.285742,
    "lng": 133.7983297,
    "category": "museum",
    "place_id": "cd9236ffa08356e999c37fdc705b015cae83eced"
  },
  {
    "name": "久万美術館",
    "lat": 33.662004,
    "lng": 132.906867,
    "category": "museum",
    "place_id": "f1d26c06b73e4c7a9b2570757846634ee5acc052"
  },
  {
    "name": "久万高原ふるさと旅行村内久万町立山村歴史館",
    "lat": 33.672986,
    "lng": 132.937985,
    "category": "museum",
    "place_id": "f9c833ab886e3da6800c35f9635a16c7620cc75a"
  },
  {
    "name": "乗松巖記念館「エスパス２１」",
    "lat": 33.833246,
    "lng": 132.780479,
    "category": "museum",
    "place_id": "b0a1eb8ff31c710e948a97d43354af53e15fe77a"
  },
  {
    "name": "乗禅寺宝物館",
    "lat": 34.0718893,
    "lng": 132.9590525,
    "category": "museum",
    "place_id": "66b2d97a7534d8a39db41189575044ac50c640c5"
  },
  {
    "name": "五十崎凧博物館",
    "lat": 33.539742,
    "lng": 132.656661,
    "category": "museum",
    "place_id": "6e1bfb6754a6f85c8a90980d7b41f189665c66b4"
  },
  {
    "name": "五十崎歴史民俗資料館",
    "lat": 33.544166,
    "lng": 132.656871,
    "category": "museum",
    "place_id": "0ab389b99f39e7efc9a89c67f3163fe55ba9009d"
  },
  {
    "name": "今治城",
    "lat": 34.0633765,
    "lng": 133.0068513,
    "category": "museum",
    "place_id": "b564aa8071f04e06a014e6ca60e1423e1836cd40"
  },
  {
    "name": "今治市上浦歴史民俗資料館（村上三島記念館）",
    "lat": 34.2556423,
    "lng": 133.0535947,
    "category": "museum",
    "place_id": "5234aff407b4363a55aee3a562e3467d4f1bf810"
  },
  {
    "name": "今治市朝倉ふるさと美術古墳館",
    "lat": 33.99976,
    "lng": 133.007538,
    "category": "museum",
    "place_id": "de9e28caf480db8bd64fee77c302628c74185994"
  },
  {
    "name": "村上水軍博物館",
    "lat": 34.1688899,
    "lng": 133.0876143,
    "category": "museum",
    "place_id": "88a478f272f8cb3ad744b53fe3f507a579ebf8af"
  },
  {
    "name": "今治市河野美術館",
    "lat": 34.062772,
    "lng": 132.998931,
    "category": "museum",
    "place_id": "b75ee844e726be521beb404c84e7a865e5813161"
  },
  {
    "name": "今治市玉川近代美術館（徳生記念館）",
    "lat": 34.0220106,
    "lng": 132.9445575,
    "category": "museum",
    "place_id": "02594cb5e9b982fde8c8a30c11e72bafa7d1f676"
  },
  {
    "name": "今治市菊間町かわら館",
    "lat": 34.0321903,
    "lng": 132.8410351,
    "category": "museum",
    "place_id": "7396fe1896ccca07556eddb111df2a65cfdb5f1e"
  },
  {
    "name": "伊方町町見郷土館",
    "lat": 33.46935,
    "lng": 132.294561,
    "category": "museum",
    "place_id": "3ff248cba7ff30647c878ed45e3665387490eccc"
  },
  {
    "name": "佐川町立青山文庫",
    "lat": 33.4977846,
    "lng": 133.2887416,
    "category": "museum",
    "place_id": "ccfe9b9d453145389d09b1f499d9601b3eed95be"
  },
  {
    "name": "八幡浜市民ギャラリー・郷土資料室",
    "lat": 33.4582779,
    "lng": 132.4255882,
    "category": "museum",
    "place_id": "84837e503197656988ddf1b5e268a6b8df736b3c"
  },
  {
    "name": "別子銅山記念館",
    "lat": 33.92131,
    "lng": 133.3093248,
    "category": "museum",
    "place_id": "e0e6e35a9aadc837b877346b9185d166519a3486"
  },
  {
    "name": "北条鹿島博物展示館",
    "lat": 33.9740926,
    "lng": 132.766197,
    "category": "museum",
    "place_id": "3d73138675f31af0c3b6c76c5acacd33bb7b8222"
  },
  {
    "name": "四万十市立郷土資料館",
    "lat": 32.9969402,
    "lng": 132.930622,
    "category": "museum",
    "place_id": "1daced4a741711351be29b7da05af6e416fbd918"
  },
  {
    "name": "土佐山内家宝物資料館",
    "lat": 33.5553684,
    "lng": 133.5312644,
    "category": "museum",
    "place_id": "8b2b1bb40b5836cbce8dbde581951ac237a1b787"
  },
  {
    "name": "土佐足摺サンゴ博物館",
    "lat": 32.789603,
    "lng": 132.866171,
    "category": "museum",
    "place_id": "3e441c87e248976e8ee866331f1fefa3eea0320f"
  },
  {
    "name": "坂出市民美術館",
    "lat": 34.314462,
    "lng": 133.849194,
    "category": "museum",
    "place_id": "74a452bc3b39c6673cf285476a7ed84c9c455f23"
  },
  {
    "name": "大洲市河辺歴史民俗資料館",
    "lat": 33.5109546,
    "lng": 132.7951415,
    "category": "museum",
    "place_id": "53bfe285460550bb695927f25971c8bbba5a0515"
  },
  {
    "name": "大洲市立博物館",
    "lat": 33.5137327,
    "lng": 132.546179,
    "category": "museum",
    "place_id": "e7f10fbcdfd641a797a4169255dc9ad55454542b"
  },
  {
    "name": "大西藤山歴史資料館",
    "lat": 34.059988,
    "lng": 132.929182,
    "category": "museum",
    "place_id": "e3e79d2123daee69fcc478a7cd7adccc2251ac31"
  },
  {
    "name": "大豊町立民俗資料館",
    "lat": 33.792532,
    "lng": 133.769492,
    "category": "museum",
    "place_id": "ce61cb15b593728fc00f550f7d48a5130b6fc906"
  },
  {
    "name": "宇和先哲記念館",
    "lat": 33.362861,
    "lng": 132.515465,
    "category": "museum",
    "place_id": "ce54377cd308438e46d14cd288ca164bed6a7b02"
  },
  {
    "name": "宇和島市立歴史資料館",
    "lat": 33.226452,
    "lng": 132.554664,
    "category": "museum",
    "place_id": "2d8f5096df1a0c777ad3dbd0f65317523ae18955"
  },
  {
    "name": "宇和歴史民俗資料館",
    "lat": 33.364209,
    "lng": 132.513604,
    "category": "museum",
    "place_id": "89d767c96e21c31824a3f8f65314c04a23a47f40"
  },
  {
    "name": "宇和米博物館",
    "lat": 33.368208,
    "lng": 132.512223,
    "category": "museum",
    "place_id": "6274f309321c0737228c48b862e8ec79fef6acf1"
  },
  {
    "name": "安芸市立書道美術館",
    "lat": 33.5195295,
    "lng": 133.9132501,
    "category": "museum",
    "place_id": "bf53a62b7d6d1efb23df600eb1965459f3fe0381"
  },
  {
    "name": "安芸市立歴史民俗資料館",
    "lat": 33.5192065,
    "lng": 133.9132474,
    "category": "museum",
    "place_id": "edcdc2a3049bf4f912b09ad9e07c2411a77f5aef"
  },
  {
    "name": "宿毛市立宿毛歴史館",
    "lat": 32.938777,
    "lng": 132.730371,
    "category": "museum",
    "place_id": "0ff3e6f22363aa20da99ae6b3ec816bbda2e60ad"
  },
  {
    "name": "天体望遠鏡博物館",
    "lat": 34.186015,
    "lng": 134.170962,
    "category": "museum",
    "place_id": "5d956fbec05df6a647e371f280cfdb711edc42a9"
  },
  {
    "name": "平賀源内先生遺品館",
    "lat": 34.3240972,
    "lng": 134.1686415,
    "category": "museum",
    "place_id": "4e8e97300fe59f62d340fd5dc57cf713ca3c383a"
  },
  {
    "name": "庄薬師堂",
    "lat": 33.974574,
    "lng": 132.804607,
    "category": "museum",
    "place_id": "8354921bd220d0811aff67b4ed974ccf92e82bc9"
  },
  {
    "name": "愛媛文華館",
    "lat": 34.0643507,
    "lng": 133.0051139,
    "category": "museum",
    "place_id": "5ddf34339fd88287c3171cab10c83483ed8f03ba"
  },
  {
    "name": "愛媛民芸館",
    "lat": 33.919786,
    "lng": 133.1795902,
    "category": "museum",
    "place_id": "baa6f22a33ee3e24f92be2e0ff1b3c2302a9e038"
  },
  {
    "name": "愛媛県歴史文化博物館",
    "lat": 33.363945,
    "lng": 132.518216,
    "category": "museum",
    "place_id": "039712b6ee66f2067328f56321c69491ecfa4837"
  },
  {
    "name": "春野町立郷土資料館",
    "lat": 33.4997193,
    "lng": 133.4885182,
    "category": "museum",
    "place_id": "8a422f87b0c17e78b5134b4e4996b3d51881ac0f"
  },
  {
    "name": "東かがわ市歴史民俗資料館",
    "lat": 34.218642,
    "lng": 134.394365,
    "category": "museum",
    "place_id": "37ca5b2bbeff6a25193ca5160d4e9e1446af8e5e"
  },
  {
    "name": "北条ふるさと館",
    "lat": 33.958673,
    "lng": 132.78024,
    "category": "museum",
    "place_id": "d937b3e345c453fd4eeb31dd4c55a3b4dd8bb473"
  },
  {
    "name": "松山市立中島歴史民俗資料館懐古館",
    "lat": 33.973359,
    "lng": 132.594528,
    "category": "museum",
    "place_id": "ce762ab44dc5943f9bd9f2236d8e87251b43355b"
  },
  {
    "name": "子規記念博物館",
    "lat": 33.849701,
    "lng": 132.787045,
    "category": "museum",
    "place_id": "eaaaec3fb0323518a20180f53f1f4156cb710cae"
  },
  {
    "name": "梅山古陶資料館",
    "lat": 33.729903,
    "lng": 132.786681,
    "category": "museum",
    "place_id": "fe7c89b7083f1f1f004b29c4ee9885cc05701a06"
  },
  {
    "name": "檮原町立歴史民俗資料館",
    "lat": 33.391313,
    "lng": 132.927127,
    "category": "museum",
    "place_id": "7a7566ab9ac66cedf4dc71e89695ce641057ccea"
  },
  {
    "name": "正覚院（山寺）宝物館",
    "lat": 34.388384,
    "lng": 133.772372,
    "category": "museum",
    "place_id": "470dd7bac34d00f7c44a1863d7cd8d166f06951a"
  },
  {
    "name": "湯築城資料館",
    "lat": 33.848147,
    "lng": 132.785669,
    "category": "museum",
    "place_id": "b43f56819a14b18887f7dbdb8f1951a75907f30c"
  },
  {
    "name": "瀬戸内海歴史民俗資料館",
    "lat": 34.378347,
    "lng": 133.931263,
    "category": "museum",
    "place_id": "bbd003bc23e5a3b023b1c844ebcc9453d64c2205"
  },
  {
    "name": "竜串貝類展示館海のギャラリー",
    "lat": 32.788672,
    "lng": 132.865787,
    "category": "museum",
    "place_id": "3532abcd6c472e75f92f09020e78c3df81d81eba"
  },
  {
    "name": "肱川風の博物館・歌麿館",
    "lat": 33.447215,
    "lng": 132.693317,
    "category": "museum",
    "place_id": "f1582857e0a9302ef65c40385dd9681597e0c024"
  },
  {
    "name": "與田寺宝物館",
    "lat": 34.241513,
    "lng": 134.321807,
    "category": "museum",
    "place_id": "2a719c5a3d40d0844fed35c9e19e7ae03e0f4cfa"
  },
  {
    "name": "芝不器男記念館",
    "lat": 33.227147,
    "lng": 132.708182,
    "category": "museum",
    "place_id": "e417700e82ea2a997b1014d6bde82f860290e123"
  },
  {
    "name": "虹の森公園四万十川学習センターおさかな館",
    "lat": 33.2293438,
    "lng": 132.7104239,
    "category": "aquarium",
    "place_id": "23a9f30a2d86c2b8a7fcaddf5bf917d55fa7221f"
  },
  {
    "name": "西予市明浜歴史民俗資料館",
    "lat": 33.313489,
    "lng": 132.4426,
    "category": "museum",
    "place_id": "0d666257684a2c963c6cc53f540747dae1a188d7"
  },
  {
    "name": "西予市立ギャラリーしろかわ",
    "lat": 33.379411,
    "lng": 132.751639,
    "category": "museum",
    "place_id": "d4c3992ea988b76c7ffda8a50301130acce01dc6"
  },
  {
    "name": "西予市立城川歴史民俗資料館",
    "lat": 33.380208,
    "lng": 132.751546,
    "category": "museum",
    "place_id": "4e889af2fc6e6ea4904dc6cfb5e53ce29a63c57d"
  },
  {
    "name": "西条市こどもの国",
    "lat": 33.922853,
    "lng": 133.180692,
    "category": "museum",
    "place_id": "feb9afe06580316847e531deaf211f5fa012b785"
  },
  {
    "name": "西条市立東予郷土館",
    "lat": 33.927685,
    "lng": 133.081704,
    "category": "museum",
    "place_id": "fa67544515b76bd311d7ebcd4590e8e9f4a4754f"
  },
  {
    "name": "西条市考古歴史館",
    "lat": 33.8995683,
    "lng": 133.197458,
    "category": "museum",
    "place_id": "14a1a8439d774e04bc5ebd0f83a1e6c8f05765de"
  },
  {
    "name": "観音寺市ちょうさ会館",
    "lat": 34.084542,
    "lng": 133.644106,
    "category": "museum",
    "place_id": "8a4e58c9ea30c79bf3bf6a52215aec4a02c1ee4a"
  },
  {
    "name": "豊浜郷土資料館",
    "lat": 34.0842683,
    "lng": 133.6437499,
    "category": "museum",
    "place_id": "b4c802a3fd029f1df69d4bfb9b85d87ec100c92e"
  },
  {
    "name": "足摺海底館",
    "lat": 32.785949,
    "lng": 132.8601351,
    "category": "aquarium",
    "place_id": "1d94293856503ec2f0211c3939afedca92442dd5"
  },
  {
    "name": "鎌田共済会郷土博物館",
    "lat": 34.3133234,
    "lng": 133.852038,
    "category": "museum",
    "place_id": "2b2594726b0eb7d778d389d1f6ff4bbf86e75104"
  },
  {
    "name": "香南市立赤岡町絵金蔵",
    "lat": 33.541673,
    "lng": 133.724606,
    "category": "museum",
    "place_id": "98088d1446fbcd10f7222811185c0bd70a2be758"
  },
  {
    "name": "香川県文化会館",
    "lat": 34.341808,
    "lng": 134.045004,
    "category": "museum",
    "place_id": "eb9aa51aca27d07357d562ad9f0bcdcb0a845f9d"
  },
  {
    "name": "香川県立ミュージアム",
    "lat": 34.349722,
    "lng": 134.05329,
    "category": "museum",
    "place_id": "23cc4401eb1fcb05de2c02f217be650090305bce"
  },
  {
    "name": "香川県立東山魁夷せとうち美術館",
    "lat": 34.349462,
    "lng": 133.824143,
    "category": "museum",
    "place_id": "4c8b0ddf3d9483e960881e625277f7545ee393b0"
  },
  {
    "name": "香川県自然科学館",
    "lat": 34.3777673,
    "lng": 133.9280333,
    "category": "museum",
    "place_id": "601e6c7616d1c48ac8ee159a0560aa518d155f44"
  },
  {
    "name": "香美市立やなせたかし記念館・アンパンマンミュージアム",
    "lat": 33.64756,
    "lng": 133.783432,
    "category": "museum",
    "place_id": "2b0ea1a468062735f3ea0c1ee9139c3c03ec2cbd"
  },
  {
    "name": "香美市立やなせたかし記念館・詩とメルヘン絵本館",
    "lat": 33.647367,
    "lng": 133.784658,
    "category": "museum",
    "place_id": "1ccd4e67f290d3cfdb892849b1e0109d004e9555"
  },
  {
    "name": "香美市立吉井勇記念館",
    "lat": 33.706263,
    "lng": 133.856334,
    "category": "museum",
    "place_id": "f4ed6a34b7153c74e7d24c2ad0aabaf46972ad4b"
  },
  {
    "name": "香美市立美術館",
    "lat": 33.610802,
    "lng": 133.6876568,
    "category": "museum",
    "place_id": "7350184c6b75240797f2169198ca7dd2cba426c0"
  },
  {
    "name": "高松市歴史資料館",
    "lat": 34.3440309,
    "lng": 134.0344437,
    "category": "museum",
    "place_id": "800259220aa88ec52816299ec510ae6f59b7659e"
  },
  {
    "name": "高松市立塩江美術館",
    "lat": 34.175602,
    "lng": 134.081274,
    "category": "museum",
    "place_id": "5b58d437856f5529e13fc3bde33c9f28e2659551"
  },
  {
    "name": "高知市立龍馬の生まれたまち記念館",
    "lat": 33.556407,
    "lng": 133.524589,
    "category": "museum",
    "place_id": "baae407a93ead0cd844e69dc7454a98eaa335136"
  },
  {
    "name": "高知県懐徳館",
    "lat": 33.5606603,
    "lng": 133.531502,
    "category": "museum",
    "place_id": "f9f17218c9f5844beff93d5f95520c97cefceaf4"
  },
  {
    "name": "高知県立歴史民俗資料館",
    "lat": 33.5960448,
    "lng": 133.6234897,
    "category": "museum",
    "place_id": "4b26ed2105ee7c6efc9f6e399cc2c6a81fd73196"
  },
  {
    "name": "鬼北町歴史民俗資料館",
    "lat": 33.335175,
    "lng": 132.798039,
    "category": "museum",
    "place_id": "5a6db531abc713564401b9d3cfe26b12021c4c36"
  },
  {
    "name": "龍河洞博物館",
    "lat": 33.603835,
    "lng": 133.745039,
    "category": "museum",
    "place_id": "8a3b7b5e4f7b5395cc1985afb6b76c4ae0a0217e"
  },
  {
    "name": "Lapis Oboke Museum",
    "lat": 33.8812495,
    "lng": 133.76011,
    "category": "museum",
    "place_id": "110946a338848a50846201a056601d4b22652259"
  },
  {
    "name": "Regional Museum",
    "lat": 33.3063131,
    "lng": 134.1101919,
    "category": "museum",
    "place_id": "f60c5a1f9bb1bea8d29c81e69ec60e14861f996b"
  },
  {
    "name": "加持水",
    "lat": 34.3505985,
    "lng": 134.1038297,
    "category": "wayside_shrine",
    "place_id": "a8aaf6b963d7c318d748c26d0ff286eb8eccd17a"
  },
  {
    "name": "高松市鬼ヶ島おにの館",
    "lat": 34.3893786,
    "lng": 134.0521595,
    "category": "museum",
    "place_id": "7199f32ad7a682c2087b2128582235a3a71ed7d0"
  },
  {
    "name": "龍河洞",
    "lat": 33.603136,
    "lng": 133.745216,
    "category": "attraction",
    "place_id": "d0d96f74df8aebe45b6c103ca77b59db0ee480a3"
  },
  {
    "name": "大川美良布神社",
    "lat": 33.6499789,
    "lng": 133.7838082,
    "category": "place_of_worship",
    "place_id": "bc4d2d02b80622d9f2d58d90c78b5ed9ab1da5dd"
  },
  {
    "name": "観音寺",
    "lat": 33.5597084,
    "lng": 133.5127043,
    "category": "place_of_worship",
    "place_id": "cadaebf12b6b2ae957ae2cc5f515d5c76d42962a"
  },
  {
    "name": "三ツ子石",
    "lat": 34.2461198,
    "lng": 134.1122594,
    "category": "memorial",
    "place_id": "b4a9842097e3d22e42bf9c8143401896d54949f9"
  },
  {
    "name": "秋葉神社 (Akiba Shrine)",
    "lat": 33.6057674,
    "lng": 133.757874,
    "category": "place_of_worship",
    "place_id": "0c043177515894642efa9d9b3e21240b1624d35c"
  },
  {
    "name": "海洋堂ホビー館四万十",
    "lat": 33.1530096,
    "lng": 133.0449105,
    "category": "museum",
    "place_id": "7d69fd213d2d95aca070ff87b5750da54e208284"
  },
  {
    "name": "神母ノ木神社",
    "lat": 33.6138147,
    "lng": 133.7150388,
    "category": "place_of_worship",
    "place_id": "ca73753f6593d3d002c971ae9e03faa12b669996"
  },
  {
    "name": "春日神社",
    "lat": 34.3247826,
    "lng": 134.0903403,
    "category": "place_of_worship",
    "place_id": "1f224636ad39179643578503b63ca4db1412cdf2"
  },
  {
    "name": "武市半平太 先生像",
    "lat": 33.5664071,
    "lng": 133.5429683,
    "category": "memorial",
    "place_id": "5e96b6cff3cd4596cfbd87b1231900e59d73c3c6"
  },
  {
    "name": "第86番札所 志度寺",
    "lat": 34.3242502,
    "lng": 134.1796409,
    "category": "place_of_worship",
    "place_id": "b31286e8e56ff5614e5752d7fd00a893041b009f"
  },
  {
    "name": "剣山神社",
    "lat": 34.0683542,
    "lng": 134.5374644,
    "category": "place_of_worship",
    "place_id": "1d0a97a3f2f4e02659fa0963dbc2af974bcee9ad"
  },
  {
    "name": "滝薬師",
    "lat": 34.0725422,
    "lng": 134.5425565,
    "category": "place_of_worship",
    "place_id": "697995b64e0666827e9a6454f33289e1e2f7d5b2"
  },
  {
    "name": "市民像",
    "lat": 33.960836,
    "lng": 133.282552,
    "category": "monument",
    "place_id": "ed51f60eddf6760b6d86990589f475431a53a7e8"
  },
  {
    "name": "子どもの像",
    "lat": 33.960869,
    "lng": 133.282083,
    "category": "monument",
    "place_id": "4e0d1b804cf53432eb2c60d65205508f517d60be"
  },
  {
    "name": "安城寺",
    "lat": 33.8454814,
    "lng": 132.7452217,
    "category": "place_of_worship",
    "place_id": "d07fe861762b45dd277b55f1517bf4945cfcac43"
  },
  {
    "name": "宝塔寺",
    "lat": 33.8463241,
    "lng": 132.744167,
    "category": "place_of_worship",
    "place_id": "e170126ce3a8540a3489f590ee0df9b04f5c9fc0"
  },
  {
    "name": "山内神社",
    "lat": 33.841729,
    "lng": 132.7437579,
    "category": "place_of_worship",
    "place_id": "03d89bfd1e12781df2a08c4b2f834b23afbbf9dc"
  },
  {
    "name": "朝日八幡神社",
    "lat": 33.8421269,
    "lng": 132.7431501,
    "category": "place_of_worship",
    "place_id": "b683aa90f6c80c691b073d1b1b2dede5000e5853"
  },
  {
    "name": "真光寺",
    "lat": 33.8461312,
    "lng": 132.7451335,
    "category": "place_of_worship",
    "place_id": "15c4f7ad304a18484e0b8471df1eb021f2c3c052"
  },
  {
    "name": "御所谷八幡神社",
    "lat": 33.7896507,
    "lng": 134.2960362,
    "category": "place_of_worship",
    "place_id": "a7d0137ba6914c6901bda2b6615262c62aee79f9"
  },
  {
    "name": "大殿八幡神社",
    "lat": 33.7927834,
    "lng": 134.2989171,
    "category": "place_of_worship",
    "place_id": "4c1d6ba73a1e1107d979b5cbf54563ba73dd5e04"
  },
  {
    "name": "平谷八幡神社",
    "lat": 33.7914428,
    "lng": 134.3031819,
    "category": "place_of_worship",
    "place_id": "73f5402cb4260e5b000bdac65320ece3d6de3145"
  },
  {
    "name": "納骨堂",
    "lat": 34.4095072,
    "lng": 134.1061069,
    "category": "place_of_worship",
    "place_id": "6a73c0d0a7cc424f4c11c3c38eb0476961df2fea"
  },
  {
    "name": "庚申庵",
    "lat": 33.843634,
    "lng": 132.754876,
    "category": "museum",
    "place_id": "6ff239a52936e9123a56abec73038e8d43824661"
  },
  {
    "name": "浄土宗 大林寺",
    "lat": 33.84522,
    "lng": 132.75475,
    "category": "place_of_worship",
    "place_id": "afa5ac7e7f1f46fa3f141e1b02c70b5b2fd96e4f"
  },
  {
    "name": "一草庵",
    "lat": 33.853954,
    "lng": 132.771832,
    "category": "museum",
    "place_id": "907bb83904ce97ab7414061cf215e32194c97b12"
  },
  {
    "name": "白金キリスト教会",
    "lat": 34.3158665,
    "lng": 133.8464248,
    "category": "place_of_worship",
    "place_id": "a98bdb92ef79c5f3286e07bb4261baa60dd31978"
  },
  {
    "name": "琴平神社",
    "lat": 34.3370952,
    "lng": 134.0494259,
    "category": "place_of_worship",
    "place_id": "dc141fdd0eeae0382264628fba5fa82ea487b216"
  },
  {
    "name": "宮が尾古墳",
    "lat": 34.2063681,
    "lng": 133.7688838,
    "category": "archaeological_site",
    "place_id": "d11e23107dccd8c63c78b0dc612a53f2e2432df4"
  },
  {
    "name": "華厳寺",
    "lat": 33.7699711,
    "lng": 132.7233904,
    "category": "place_of_worship",
    "place_id": "a13ef9e3f474f13be2b862d9f13fbf3964a650d2"
  },
  {
    "name": "高松城",
    "lat": 34.350028,
    "lng": 134.050386,
    "category": "castle",
    "place_id": "4d204d84d4f4f97207ee8cae710921d1b17a0645"
  },
  {
    "name": "漆芸家 玉楮象谷(たまかじぞうこく)の像",
    "lat": 34.340382,
    "lng": 134.047059,
    "category": "memorial",
    "place_id": "73cb6880af0dc74af7fb87d13a0a9ae263d7065c"
  },
  {
    "name": "ハゲさん",
    "lat": 34.34162,
    "lng": 134.0475768,
    "category": "memorial",
    "place_id": "357c6cfcc56208bafc95420bd7addcf66fa45103"
  },
  {
    "name": "伊豫豆比古命神社",
    "lat": 33.8092853,
    "lng": 132.7707522,
    "category": "place_of_worship",
    "place_id": "f894fe453fe0a2da7bb323e6c79a8dbc3364a9bf"
  },
  {
    "name": "日招八幡大神社",
    "lat": 33.817371,
    "lng": 132.7456353,
    "category": "place_of_worship",
    "place_id": "33857610c49d88eb39bd29e467e4647c74bd5ce3"
  },
  {
    "name": "不動院石仙寺",
    "lat": 33.8088682,
    "lng": 132.7683087,
    "category": "place_of_worship",
    "place_id": "8895b299fec1df11bd4d895bc5afb6e7025f6cd4"
  },
  {
    "name": "第46番札所 浄瑠璃寺 (Joruri-ji)",
    "lat": 33.7536525,
    "lng": 132.8191575,
    "category": "place_of_worship",
    "place_id": "3041e8ff443fce73cc9f4940c5de252cb11f6e09"
  },
  {
    "name": "第48番札所 清滝山 西林寺 (Sairin-ji)",
    "lat": 33.7935638,
    "lng": 132.8138601,
    "category": "place_of_worship",
    "place_id": "48828fcc0970ac2a3eb00539e2065d7fb3edf06f"
  },
  {
    "name": "第49番札所 浄土寺",
    "lat": 33.8166202,
    "lng": 132.8083106,
    "category": "place_of_worship",
    "place_id": "e9315fe8742c318934e2df72e3f600b9c3261507"
  },
  {
    "name": "第52番札所 太山寺 (Taisan-ji)",
    "lat": 33.8850044,
    "lng": 132.715021,
    "category": "place_of_worship",
    "place_id": "d25bd4a6659e63b9e16f9a5592464d7613c2e1db"
  },
  {
    "name": "第53番札所 円明寺 (Enmyo-ji)",
    "lat": 33.8916797,
    "lng": 132.7397885,
    "category": "place_of_worship",
    "place_id": "a941d39c00debcdf9b2a327c79588b3a56705a2b"
  },
  {
    "name": "薬師寺",
    "lat": 33.8321951,
    "lng": 132.7662149,
    "category": "place_of_worship",
    "place_id": "558c6ba59b779d3ba4b3e669eb8aa89518dd0f48"
  },
  {
    "name": "地蔵",
    "lat": 34.1287137,
    "lng": 133.5338778,
    "category": "memorial",
    "place_id": "ed010b65dcf6c8ed2ca51ca0e8d202fd6de8bf56"
  },
  {
    "name": "忠霊之碑",
    "lat": 34.1296648,
    "lng": 133.5355924,
    "category": "memorial",
    "place_id": "33edd07b2b52fef09ed96a5c025b85489ae1f793"
  },
  {
    "name": "伊吹産院",
    "lat": 34.130166,
    "lng": 133.5344515,
    "category": "memorial",
    "place_id": "3c2350dd6b9a29711adad71ff155476607e277af"
  },
  {
    "name": "伊吹島民俗資料館",
    "lat": 34.1283399,
    "lng": 133.5373709,
    "category": "museum",
    "place_id": "859da74cb653aeb090314b1c2bce27380777c88b"
  },
  {
    "name": "豊島横尾館",
    "lat": 34.4869088,
    "lng": 134.0596607,
    "category": "museum",
    "place_id": "368311ba4a8d15fd718e8bd8c90385ff57d31dff"
  },
  {
    "name": "ANDO MUSEUM",
    "lat": 34.4594028,
    "lng": 133.997021,
    "category": "museum",
    "place_id": "eef3abecd58ded7cf8ef596157a53cd0a7672f48"
  },
  {
    "name": "護王神社",
    "lat": 34.4597583,
    "lng": 133.9984404,
    "category": "place_of_worship",
    "place_id": "2fd23a83edbbfc0081840a3648c1fed83a689b79"
  },
  {
    "name": "加麻良神社",
    "lat": 34.1367995,
    "lng": 133.6780549,
    "category": "place_of_worship",
    "place_id": "5ff7264d0a04f4b2d17c856b56c531499bf3b3b7"
  },
  {
    "name": "湯築城",
    "lat": 33.8480881,
    "lng": 132.7867746,
    "category": "castle",
    "place_id": "0242739d83c128c6d93ae7d6653e93ae06c2e15e"
  },
  {
    "name": "天石門別八倉比売神社",
    "lat": 34.0557802,
    "lng": 134.4649416,
    "category": "place_of_worship",
    "place_id": "7f028650b01ff155a928f98ea64bfc996cd9873a"
  },
  {
    "name": "石鎚神社",
    "lat": 33.8894087,
    "lng": 133.1545435,
    "category": "place_of_worship",
    "place_id": "ac688de53e4c19ad777a98623caee875c83324b4"
  },
  {
    "name": "石鎚神社 成就社",
    "lat": 33.7900456,
    "lng": 133.1290434,
    "category": "place_of_worship",
    "place_id": "f6f5fee9750f569fa7d6ba0cc15dc0c6b9706d3f"
  },
  {
    "name": "山内一豊公之像",
    "lat": 33.5610415,
    "lng": 133.5335144,
    "category": "memorial",
    "place_id": "91ff0d49bd36e9a8df5f92f5bfd23cf62be625fa"
  },
  {
    "name": "板垣退助像",
    "lat": 33.5608076,
    "lng": 133.5325437,
    "category": "memorial",
    "place_id": "3b5bc2bf33294281e9330c19fc46f54d4bde514f"
  },
  {
    "name": "ベルモニー会館勅使",
    "lat": 34.309975,
    "lng": 134.0191039,
    "category": "place_of_worship",
    "place_id": "fa3962486da3183294f86a220c56fdaea0567aab"
  },
  {
    "name": "別格18番札所 屏風ヶ浦 海岸寺",
    "lat": 34.2559798,
    "lng": 133.7281057,
    "category": "place_of_worship",
    "place_id": "5e4381509f6651fbdf5ea0a37b13daeb31b982b5"
  },
  {
    "name": "地蔵",
    "lat": 33.556718,
    "lng": 133.5068193,
    "category": "memorial",
    "place_id": "4cc92b0fbbc40906e0c201d9e7f5a4466e47dfc9"
  },
  {
    "name": "ジョン万次郎像",
    "lat": 32.725637,
    "lng": 133.0195849,
    "category": "monument",
    "place_id": "e7fed49e76ac4bc942a059d35ecba15163209770"
  },
  {
    "name": "小豆島オリーブ園",
    "lat": 34.4709522,
    "lng": 134.2705165,
    "category": "attraction",
    "place_id": "76322f8ab084d6485872bab70e86c1cbd215964e"
  },
  {
    "name": "勝岡神社",
    "lat": 33.8965586,
    "lng": 132.7242931,
    "category": "place_of_worship",
    "place_id": "7d3e0c4dc91fd42f188041ba2fd18133d0cc8915"
  },
  {
    "name": "秋葉神社",
    "lat": 33.5572723,
    "lng": 133.5057644,
    "category": "place_of_worship",
    "place_id": "6a84387c8015ec11e7c1bda5540d0ad512625093"
  },
  {
    "name": "宝珠寺",
    "lat": 33.7450266,
    "lng": 132.7285922,
    "category": "place_of_worship",
    "place_id": "6d7f4d756d8d08653f6836d9555d39600406b54a"
  },
  {
    "name": "八坂神社",
    "lat": 33.1525071,
    "lng": 132.7552915,
    "category": "place_of_worship",
    "place_id": "63ba5828020e742bef3317571ff1abf4abb2608a"
  },
  {
    "name": "心臓音のアーカイブ",
    "lat": 34.4878754,
    "lng": 134.1031091,
    "category": "museum",
    "place_id": "3ce6d8e944f5b842cf6d97a3ed993a8633d69065"
  },
  {
    "name": "一ノ谷庵 17",
    "lat": 34.489269,
    "lng": 134.31044,
    "category": "place_of_worship",
    "place_id": "396a5839f7bf6e166e2ad4ba028fcbaee24bde6a"
  },
  {
    "name": "佛ヶ滝 20",
    "lat": 34.503529,
    "lng": 134.30365,
    "category": "place_of_worship",
    "place_id": "2bf55d0eb5a3a20046e6de9a7e6721100bd0d30c"
  },
  {
    "name": "佛谷山 41",
    "lat": 34.491421,
    "lng": 134.218872,
    "category": "place_of_worship",
    "place_id": "7e6b86e1182c1c733d13e44776de011cc6081ff2"
  },
  {
    "name": "保安寺 40",
    "lat": 34.484886,
    "lng": 134.214798,
    "category": "place_of_worship",
    "place_id": "acfeef38df6bda6180bd12be5451bfc724f30794"
  },
  {
    "name": "保寿寺庵(浜ノ庵) 34",
    "lat": 34.469925,
    "lng": 134.238724,
    "category": "place_of_worship",
    "place_id": "f6007e3a827ee0c2550e7eaedafc0b994df35aff"
  },
  {
    "name": "光明寺 38",
    "lat": 34.485214,
    "lng": 134.236496,
    "category": "place_of_worship",
    "place_id": "0523b2520a26671d85277dbf334c8f2f6683002e"
  },
  {
    "name": "光明庵 65",
    "lat": 34.49155,
    "lng": 134.178772,
    "category": "place_of_worship",
    "place_id": "f04d3483c11930c7c73958ef44996f80f5b7759b"
  },
  {
    "name": "円満寺 74",
    "lat": 34.502991,
    "lng": 134.215164,
    "category": "place_of_worship",
    "place_id": "dc30b72e0735771fce3fe8194a1bc9e4329fc7c2"
  },
  {
    "name": "古江庵 4",
    "lat": 34.459965,
    "lng": 134.314407,
    "category": "place_of_worship",
    "place_id": "8ccf36e1f47f2090b9411c63247414c782c95814"
  },
  {
    "name": "吉田庵 82",
    "lat": 34.555847,
    "lng": 134.339951,
    "category": "place_of_worship",
    "place_id": "a6cbff2186763e267972243d20e87de3abca7b4c"
  },
  {
    "name": "向庵 7",
    "lat": 34.467152,
    "lng": 134.324341,
    "category": "place_of_worship",
    "place_id": "10987b2e0dbf1337b6c499f700ec0a1a5a270f36"
  },
  {
    "name": "地蔵寺堂 45",
    "lat": 34.502819,
    "lng": 134.243591,
    "category": "place_of_worship",
    "place_id": "ca58e6af00b4945f0bc96bcd05c972271a133245"
  },
  {
    "name": "堀越庵 5",
    "lat": 34.458054,
    "lng": 134.301682,
    "category": "place_of_worship",
    "place_id": "7e6bd73ca036b28d1d944d58f291dc267682da95"
  },
  {
    "name": "多聞寺 46",
    "lat": 34.506733,
    "lng": 134.228531,
    "category": "place_of_worship",
    "place_id": "b04e34c7bf11997940b052e55d237096e7274c0e"
  },
  {
    "name": "大乗殿 62",
    "lat": 34.484398,
    "lng": 134.172028,
    "category": "place_of_worship",
    "place_id": "0c8f3fe5f67d5a7c80d430d20a852af4231a4c41"
  },
  {
    "name": "大師堂 15",
    "lat": 34.486511,
    "lng": 134.314331,
    "category": "place_of_worship",
    "place_id": "473b95dd95f787ebbd0f18de913518a837edc11e"
  },
  {
    "name": "大聖寺 75",
    "lat": 34.515804,
    "lng": 134.216614,
    "category": "place_of_worship",
    "place_id": "daa49e26a0b9f045d1dbd160a8ca778782e6155e"
  },
  {
    "name": "奥之院 隼山",
    "lat": 34.460613,
    "lng": 134.339783,
    "category": "place_of_worship",
    "place_id": "2a2626cdeb81970207c6e8a013839664e5f3479a"
  },
  {
    "name": "安養寺 24",
    "lat": 34.47604,
    "lng": 134.287354,
    "category": "place_of_worship",
    "place_id": "5bcfff6a793cd1f4366536eac6b6b88476d93896"
  },
  {
    "name": "小豆島霊場会総本院",
    "lat": 34.485126,
    "lng": 134.180176,
    "category": "place_of_worship",
    "place_id": "9c978c25535e7e8c26bc38a467433b4b1e431c93"
  },
  {
    "name": "岡ノ坊 12",
    "lat": 34.483936,
    "lng": 134.322784,
    "category": "place_of_worship",
    "place_id": "6af2a3d86cb1c0302a113b1f35b0c8f2adb0a053"
  },
  {
    "name": "峯之山庵 22",
    "lat": 34.4811113,
    "lng": 134.3020003,
    "category": "place_of_worship",
    "place_id": "c08003d4a55d2be53145f31edc186724bf53f83b"
  },
  {
    "name": "常光寺 8",
    "lat": 34.468636,
    "lng": 134.323807,
    "category": "place_of_worship",
    "place_id": "23fb88d9c57eb5e5b4a1a83d811f2b13a6f2d301"
  },
  {
    "name": "庚申堂 9",
    "lat": 34.46981,
    "lng": 134.321625,
    "category": "place_of_worship",
    "place_id": "1e99dfe2d62037772c96b57be91adb25e70c394d"
  },
  {
    "name": "当浜庵 86",
    "lat": 34.522926,
    "lng": 134.353424,
    "category": "place_of_worship",
    "place_id": "c0844c9e9369f1b541e6a7ccb1876c841aa5adc9"
  },
  {
    "name": "恵門ノ滝 81",
    "lat": 34.534004,
    "lng": 134.300293,
    "category": "place_of_worship",
    "place_id": "278901f9330798e2f8613488291b6aa82224ae7f"
  },
  {
    "name": "恵門ノ滝",
    "lat": 34.544346,
    "lng": 134.33725,
    "category": "place_of_worship",
    "place_id": "a406deccebbccdfe7b83fa3da8e5896ba5553dc6"
  },
  {
    "name": "愛染寺 32",
    "lat": 34.4724919,
    "lng": 134.2359734,
    "category": "place_of_worship",
    "place_id": "f8181c4540347688f525d6bc02e3fd0c90f6afa0"
  },
  {
    "name": "救世堂 73",
    "lat": 34.506584,
    "lng": 134.21376,
    "category": "place_of_worship",
    "place_id": "d1ed8fb4c3df8683fd8b0e26825b9465061882e5"
  },
  {
    "name": "旧八幡宮 52",
    "lat": 34.4935128,
    "lng": 134.1975221,
    "category": "place_of_worship",
    "place_id": "de0753cc462d48d2f97d6f736a4d51877729e5a7"
  },
  {
    "name": "明王寺",
    "lat": 34.484089,
    "lng": 134.241898,
    "category": "place_of_worship",
    "place_id": "d506d3214e37cdd559fab4297b4b0b86dd0171ca"
  },
  {
    "name": "木ノ下庵 19",
    "lat": 34.487305,
    "lng": 134.300827,
    "category": "place_of_worship",
    "place_id": "aad8b9648bf9136fe22fdba68185d85ee27c2ba8"
  },
  {
    "name": "本地堂",
    "lat": 34.542145,
    "lng": 134.339401,
    "category": "place_of_worship",
    "place_id": "21007af493d1aa7082ea1db807dafd7fe77e2d78"
  },
  {
    "name": "本堂 23",
    "lat": 34.481159,
    "lng": 134.300385,
    "category": "place_of_worship",
    "place_id": "cbf86af539d485b0bbba8d91b9a28172d6248e21"
  },
  {
    "name": "本覚寺 53",
    "lat": 34.491333,
    "lng": 134.178574,
    "category": "place_of_worship",
    "place_id": "9826bb3c9bc22a26d9cc1d58258de7748d9618e9"
  },
  {
    "name": "東林庵 49",
    "lat": 34.496269,
    "lng": 134.205933,
    "category": "place_of_worship",
    "place_id": "b6f6b7193d6afb1c82a7bade2bdff78c7329f14e"
  },
  {
    "name": "松林寺 68",
    "lat": 34.511127,
    "lng": 134.169998,
    "category": "place_of_worship",
    "place_id": "a3e98f2346b98a2ee1b5d7a8d7e61fe978cb1f39"
  },
  {
    "name": "松風庵 64",
    "lat": 34.484772,
    "lng": 134.18187,
    "category": "place_of_worship",
    "place_id": "25d9d99cb705795b9f40071b8a3338374e4f3b19"
  },
  {
    "name": "松風庵 39",
    "lat": 34.487225,
    "lng": 134.2363742,
    "category": "place_of_worship",
    "place_id": "dd8164b4722019d8b760d18e6982947d5bfd2805"
  },
  {
    "name": "林庵 35",
    "lat": 34.486141,
    "lng": 134.230621,
    "category": "place_of_worship",
    "place_id": "9d050ecd8edf058fd3b99d172b89dd44e35fd2e9"
  },
  {
    "name": "栂尾山 47",
    "lat": 34.507812,
    "lng": 134.233841,
    "category": "place_of_worship",
    "place_id": "510c3213512d2de38cfd337cba0533104634c7fe"
  },
  {
    "name": "栄光寺 13",
    "lat": 34.485352,
    "lng": 134.320221,
    "category": "place_of_worship",
    "place_id": "7e951509a65f8de4bca898d651c19dd2e023b1b6"
  },
  {
    "name": "桜庵",
    "lat": 34.472744,
    "lng": 134.276993,
    "category": "place_of_worship",
    "place_id": "3d8505f6a078849769938f101edf1dcfab2f565f"
  },
  {
    "name": "楠霊庵 88",
    "lat": 34.491531,
    "lng": 134.343552,
    "category": "place_of_worship",
    "place_id": "2a659be0881c8c7b8a5a8384000302044b85c862"
  },
  {
    "name": "極楽寺 16",
    "lat": 34.48531,
    "lng": 134.310547,
    "category": "place_of_worship",
    "place_id": "ca1b88ebae6adff7ccc7284dc1c34aa1f2213935"
  },
  {
    "name": "歓喜寺 77",
    "lat": 34.51965,
    "lng": 134.226242,
    "category": "place_of_worship",
    "place_id": "c75438daaa245b75364e91aa858f0b9d27520cdf"
  },
  {
    "name": "正法寺 30",
    "lat": 34.45208,
    "lng": 134.242966,
    "category": "place_of_worship",
    "place_id": "14123c8ae91bc47c813b8db89be09e31fd6951e3"
  },
  {
    "name": "毘沙門堂 48",
    "lat": 34.5075176,
    "lng": 134.2320319,
    "category": "place_of_worship",
    "place_id": "364a846c823b3177a13d1d8a2fdefcc01ff1229d"
  },
  {
    "name": "江洞窟 60",
    "lat": 34.462612,
    "lng": 134.157562,
    "category": "place_of_worship",
    "place_id": "df92e3e346fa92a61443430c743be6d21f4e9f19"
  },
  {
    "name": "洞雲山 1",
    "lat": 34.461597,
    "lng": 134.336746,
    "category": "place_of_worship",
    "place_id": "714829adb3d98add7f4bc80d7b72601561ed9ef3"
  },
  {
    "name": "浄源坊 57",
    "lat": 34.489105,
    "lng": 134.183167,
    "category": "place_of_worship",
    "place_id": "b01f60511584acedea2a915365fb9e91cd651896"
  },
  {
    "name": "海底庵 87",
    "lat": 34.501369,
    "lng": 134.347092,
    "category": "place_of_worship",
    "place_id": "40a65d152bed8bb16a8dfa16ccb6ed032dbb4f20"
  },
  {
    "name": "清滝山 14",
    "lat": 34.505833,
    "lng": 134.317612,
    "category": "place_of_worship",
    "place_id": "d63b0d1132e2b42f0d7782c3cf1a40f65482c41e"
  },
  {
    "name": "清見寺 21",
    "lat": 34.484451,
    "lng": 134.303619,
    "category": "place_of_worship",
    "place_id": "c8fe37857c8aca760b2734a4dba2f9b25717ca7f"
  },
  {
    "name": "湯舟山 44",
    "lat": 34.505733,
    "lng": 134.242569,
    "category": "place_of_worship",
    "place_id": "cc13511c97c6f56b0207dc1a1faff933721bd2d7"
  },
  {
    "name": "滝ノ宮堂 71",
    "lat": 34.505688,
    "lng": 134.199707,
    "category": "place_of_worship",
    "place_id": "9243ee6013c596637f1fa289d7002a0e6d268354"
  },
  {
    "name": "滝湖寺 73",
    "lat": 34.504871,
    "lng": 134.209442,
    "category": "place_of_worship",
    "place_id": "689e2a241ba6c74c191ce1424bb55eae3685d987"
  },
  {
    "name": "滝湖寺奥之院 笠ヶ滝 72",
    "lat": 34.507305,
    "lng": 134.208176,
    "category": "place_of_worship",
    "place_id": "0d8fbce760ec24e7c9da0c851353e5a78d237330"
  },
  {
    "name": "瑞雲堂 67",
    "lat": 34.513245,
    "lng": 134.169388,
    "category": "place_of_worship",
    "place_id": "630aa4e096f7da2ec57dcd7e6c1aad95a222fb3a"
  },
  {
    "name": "瑠璃堂 69",
    "lat": 34.518253,
    "lng": 134.167664,
    "category": "place_of_worship",
    "place_id": "192a446c284b7c621c7716e38c6a020faf16ff48"
  },
  {
    "name": "甘露庵 59",
    "lat": 34.475864,
    "lng": 134.169418,
    "category": "place_of_worship",
    "place_id": "dc7777480b9997691fb52930102fa7c8cc02c4fa"
  },
  {
    "name": "田ノ浦庵 6",
    "lat": 34.452206,
    "lng": 134.286774,
    "category": "place_of_worship",
    "place_id": "b6c66ae93c76d63afe8bc4441f3fc9bd5c39055c"
  },
  {
    "name": "石門洞 18",
    "lat": 34.509686,
    "lng": 134.303925,
    "category": "place_of_worship",
    "place_id": "3647ce8ede1722c3745bf0ee29d97b3740b2637e"
  },
  {
    "name": "等空庵 66",
    "lat": 34.507256,
    "lng": 134.166641,
    "category": "place_of_worship",
    "place_id": "00dd790606d396a2a19a65d2c7f953474bd67c0d"
  },
  {
    "name": "薬師堂 28",
    "lat": 34.4426929,
    "lng": 134.2529396,
    "category": "place_of_worship",
    "place_id": "6b38751d93049cc48413977b9d23e2ae94b0454f"
  },
  {
    "name": "薬師庵 79",
    "lat": 34.547344,
    "lng": 134.270386,
    "category": "place_of_worship",
    "place_id": "338307d5f2bb3412adf83216eee6a410a31bf897"
  },
  {
    "name": "藤原寺 76",
    "lat": 34.525276,
    "lng": 134.229141,
    "category": "place_of_worship",
    "place_id": "df65ae067cd75f6fb3384ae7acc57f16a0cb490d"
  },
  {
    "name": "行者堂 56",
    "lat": 34.492104,
    "lng": 134.190063,
    "category": "place_of_worship",
    "place_id": "02b915d163fc81e2639bcb702644e70f437e11c0"
  },
  {
    "name": "西の滝 42",
    "lat": 34.489307,
    "lng": 134.223877,
    "category": "place_of_worship",
    "place_id": "7a0a826c6e1c90205755df4ebf83ee7456014b01"
  },
  {
    "name": "西光寺 58",
    "lat": 34.4830691,
    "lng": 134.1872718,
    "category": "place_of_worship",
    "place_id": "8353f1c46ec196a185f4af58e23587cbe1c51c53"
  },
  {
    "name": "西照庵 10",
    "lat": 34.463646,
    "lng": 134.3184709,
    "category": "place_of_worship",
    "place_id": "b85def8b99e787b33ef7de64dff34c460ed4e86e"
  },
  {
    "name": "観音堂 11",
    "lat": 34.477257,
    "lng": 134.320877,
    "category": "place_of_worship",
    "place_id": "3cbd620d8cf3b0e4b96fff0e25c82cf195f824f3"
  },
  {
    "name": "観音堂 55",
    "lat": 34.491756,
    "lng": 134.192886,
    "category": "place_of_worship",
    "place_id": "e569cafccbd1fefaba4780c3d38362048b932a9c"
  },
  {
    "name": "観音寺 3",
    "lat": 34.458374,
    "lng": 134.323456,
    "category": "place_of_worship",
    "place_id": "d6ab752a9ce807976ada36c4cfd0da88c278c80a"
  },
  {
    "name": "観音寺 80",
    "lat": 34.5451947,
    "lng": 134.2797021,
    "category": "place_of_worship",
    "place_id": "a1fdd633a6b1cbe857af3029cee57947796f1084"
  },
  {
    "name": "誓願寺 31",
    "lat": 34.461746,
    "lng": 134.243317,
    "category": "place_of_worship",
    "place_id": "c8d53e126bb48ff4991b669611974abb4dac096c"
  },
  {
    "name": "誓願寺庵 25",
    "lat": 34.478432,
    "lng": 134.281418,
    "category": "place_of_worship",
    "place_id": "285dad81dfa206d1fed253c58fa72c3cfbf5d994"
  },
  {
    "name": "遊苦庵 50",
    "lat": 34.494179,
    "lng": 134.203308,
    "category": "place_of_worship",
    "place_id": "dd3ddfe6f30304615fbb4177fc3ebdf9d9ae5bcb"
  },
  {
    "name": "金剛寺",
    "lat": 34.5262428,
    "lng": 134.2232253,
    "category": "place_of_worship",
    "place_id": "2a53eb3a4de4f7abef3a0e648ec7ca210079dc19"
  },
  {
    "name": "金剛寺奥之院 三暁庵 76",
    "lat": 34.52087,
    "lng": 134.21907,
    "category": "place_of_worship",
    "place_id": "4705e72a0f932f66b538c50bc75c5094cfdfabec"
  },
  {
    "name": "長勝寺 33",
    "lat": 34.476959,
    "lng": 134.235458,
    "category": "place_of_worship",
    "place_id": "0532466d0eefc6759c08867b88df6b08f1b33635"
  },
  {
    "name": "長勝寺 70",
    "lat": 34.513432,
    "lng": 134.178665,
    "category": "place_of_worship",
    "place_id": "cf3749a805629708f429a15295d6bdb92a1a058a"
  },
  {
    "name": "阿弥陀寺 26",
    "lat": 34.47213,
    "lng": 134.278122,
    "category": "place_of_worship",
    "place_id": "747ed38f9e7bbce8a7601e0cab0752e54f916758"
  },
  {
    "name": "雲胡庵 78",
    "lat": 34.532139,
    "lng": 134.247879,
    "category": "place_of_worship",
    "place_id": "ed4c86d6a387aa6fb95512b0953905f35fec3ac7"
  },
  {
    "name": "三界地蔵",
    "lat": 34.0496017,
    "lng": 134.5763047,
    "category": "place_of_worship",
    "place_id": "74604384bb7094418cdfed2be02eece009680d75"
  },
  {
    "name": "川上神社",
    "lat": 33.8000302,
    "lng": 132.9140048,
    "category": "place_of_worship",
    "place_id": "ab67a5e4a65ece33b56690915fe8d2a31cd800b1"
  },
  {
    "name": "氏之宮三嶋神社",
    "lat": 33.7943524,
    "lng": 132.9388899,
    "category": "place_of_worship",
    "place_id": "abf6091e4928b700b370c84810aa7348b8e50630"
  },
  {
    "name": "浄土寺",
    "lat": 33.7793203,
    "lng": 132.8748639,
    "category": "place_of_worship",
    "place_id": "93f5f62c5bccc5d89a102fac1ecd284e445f8521"
  },
  {
    "name": "三奈良神社",
    "lat": 33.7844418,
    "lng": 132.879638,
    "category": "place_of_worship",
    "place_id": "6798d68989d32f0f5c19662760c3e52ceebd3890"
  },
  {
    "name": "素鵞神社",
    "lat": 33.8172431,
    "lng": 132.8150843,
    "category": "place_of_worship",
    "place_id": "eed48390a6567f987af26ecf2c91fa7e073f2a56"
  },
  {
    "name": "極楽寺",
    "lat": 33.8159549,
    "lng": 132.8107222,
    "category": "place_of_worship",
    "place_id": "40da5a038114eb0c72d0aff43c652b5823580cf7"
  },
  {
    "name": "日尾八幡社",
    "lat": 33.8174301,
    "lng": 132.8062713,
    "category": "place_of_worship",
    "place_id": "3af9457e31a99aab8c3590695db5685c696c681f"
  },
  {
    "name": "第47番札所 八坂寺 (Yasaka-ji)",
    "lat": 33.757975,
    "lng": 132.8128077,
    "category": "place_of_worship",
    "place_id": "3bc1e0afe9c66b60a293665bd718fb6fe4a7f3e3"
  },
  {
    "name": "阿波おどり人形",
    "lat": 34.0686328,
    "lng": 134.5490929,
    "category": "memorial",
    "place_id": "fabb1cd46647cbb1356f7a621fd519e61f76cb01"
  },
  {
    "name": "お絵かき水族館",
    "lat": 34.070698,
    "lng": 134.5475695,
    "category": "attraction",
    "place_id": "1d12f869c606513b847df244b494f6f6a6eca8ac"
  },
  {
    "name": "海津見神社 (龍王宮)",
    "lat": 33.4955971,
    "lng": 133.5746399,
    "category": "place_of_worship",
    "place_id": "8ca3f754fd49f69c7e5ca86a0655db241d3966eb"
  },
  {
    "name": "王子神社",
    "lat": 34.1104531,
    "lng": 134.4446112,
    "category": "place_of_worship",
    "place_id": "0cc0350ab111e65cc96a480702fc591475b67929"
  },
  {
    "name": "情報通信交流館 e-とぴあ・かがわ",
    "lat": 34.3526101,
    "lng": 134.0465636,
    "category": "attraction",
    "place_id": "429b92b3ddddb99f3c61857bdebd4de64fbc9022"
  },
  {
    "name": "劔神社",
    "lat": 33.8684303,
    "lng": 134.0903278,
    "category": "place_of_worship",
    "place_id": "2ad939cd2262888ab2e3ef0bec6f35646958daf0"
  },
  {
    "name": "中組地蔵堂",
    "lat": 33.8330725,
    "lng": 132.7522266,
    "category": "place_of_worship",
    "place_id": "abb6ef4651d83f287672829a8bbe0e7b026c9be9"
  },
  {
    "name": "藤沢喜郎氏の像",
    "lat": 33.5606903,
    "lng": 133.5187442,
    "category": "memorial",
    "place_id": "2a3b8cbc84e1f384c3e244573da19873ef2bfbf8"
  },
  {
    "name": "徳島カトリック教会",
    "lat": 34.071933,
    "lng": 134.559264,
    "category": "place_of_worship",
    "place_id": "d090d3cbe9e81ad7bcd42def9ca5e1143192af8a"
  },
  {
    "name": "渦の道",
    "lat": 34.2361791,
    "lng": 134.6421065,
    "category": "museum",
    "place_id": "307b066954d27bee1cd4cbe12144d54dfbfcabef"
  },
  {
    "name": "住吉大神宮",
    "lat": 34.392476,
    "lng": 134.051145,
    "category": "place_of_worship",
    "place_id": "9c72b1f0ff91252f666e5f021439edcf65db9765"
  },
  {
    "name": "加茂神社",
    "lat": 34.4179904,
    "lng": 134.0554155,
    "category": "place_of_worship",
    "place_id": "473c3197b055c4b88575c0ab858949b3b32c4710"
  },
  {
    "name": "八幡神社",
    "lat": 34.0851834,
    "lng": 134.4858585,
    "category": "place_of_worship",
    "place_id": "a369926c0b1e7bf4540340738299f59c2bdb9c54"
  },
  {
    "name": "細川和俊君の足跡",
    "lat": 34.4320819,
    "lng": 134.0584197,
    "category": "monument",
    "place_id": "a39c039d2ecd6011218ac62478d1c05ecbfed1e2"
  },
  {
    "name": "妙眼寺",
    "lat": 34.1657851,
    "lng": 134.6242819,
    "category": "place_of_worship",
    "place_id": "2403138b8424a37f456b8c772d4d420061c2721d"
  },
  {
    "name": "東林院",
    "lat": 34.1613557,
    "lng": 134.5361139,
    "category": "place_of_worship",
    "place_id": "0c7c2599c49d22c19333aa92e1cc3c9b298c76dc"
  },
  {
    "name": "手作り郷土大賞",
    "lat": 34.0678658,
    "lng": 134.1477838,
    "category": "memorial",
    "place_id": "51b792731ec8626ee6969d8bed0f6e2d4248862f"
  },
  {
    "name": "かずら橋イベント広場竣工記念碑",
    "lat": 33.8739159,
    "lng": 133.8332259,
    "category": "memorial",
    "place_id": "6081a637bc42868b58fa78c3d67ac206550e1e09"
  },
  {
    "name": "蔓橋 地蔵尊",
    "lat": 33.8748132,
    "lng": 133.8357752,
    "category": "memorial",
    "place_id": "299eb209d0b225a1a5836aa91b2d4c546035524f"
  },
  {
    "name": "井戸",
    "lat": 33.8442289,
    "lng": 132.7667486,
    "category": "yes",
    "place_id": "976f88f404bd3a8455c068bb8137550cc6c62f71"
  },
  {
    "name": "犬尾城跡",
    "lat": 33.2743167,
    "lng": 132.5383192,
    "category": "archaeological_site",
    "place_id": "d7e58c58bd8c3a1fe22bf08e1e33dd7df833c901"
  },
  {
    "name": "石城跡",
    "lat": 33.2864793,
    "lng": 132.5383561,
    "category": "archaeological_site",
    "place_id": "675af7dc83ce7f4285252522ac3513ea06ce0e1a"
  },
  {
    "name": "日本基督教団砥部教会",
    "lat": 33.7356716,
    "lng": 132.7920403,
    "category": "place_of_worship",
    "place_id": "37ec7c9497c61ff9e78fbb71b9f8b4f7226164bf"
  },
  {
    "name": "石仏群",
    "lat": 34.3288177,
    "lng": 134.0743117,
    "category": "wayside_shrine",
    "place_id": "2aecc246aec95993ee7fb1e66a17476f10c1b256"
  },
  {
    "name": "白山神社",
    "lat": 34.3199507,
    "lng": 134.0750308,
    "category": "place_of_worship",
    "place_id": "ee07a7a3678ad17d7f8551fe577ca825bfcd23d8"
  },
  {
    "name": "竣工記念碑",
    "lat": 34.3117175,
    "lng": 134.0657305,
    "category": "memorial",
    "place_id": "dfe9463cfe26e4fd1f768087645013a18e55282e"
  },
  {
    "name": "改修記念碑",
    "lat": 34.3040902,
    "lng": 134.0659467,
    "category": "memorial",
    "place_id": "3bfd09bb566e9a4568d05412f68cd2001909b623"
  },
  {
    "name": "天照大神",
    "lat": 34.3045721,
    "lng": 134.0657563,
    "category": "wayside_shrine",
    "place_id": "715d2e1def7cabe4820e7a563721871480433ac4"
  },
  {
    "name": "石仏",
    "lat": 34.30342,
    "lng": 134.0620186,
    "category": "wayside_shrine",
    "place_id": "21372c9914d3f43aed664af87c12a0a3a732a623"
  },
  {
    "name": "史跡今治城跡",
    "lat": 34.0638599,
    "lng": 133.0061674,
    "category": "memorial",
    "place_id": "cdc2bd5439158a05022128fec0b465f24c094fbd"
  },
  {
    "name": "今治綿業の父　矢野七三郎について",
    "lat": 34.0636396,
    "lng": 133.0076347,
    "category": "memorial",
    "place_id": "12c4dacedc38c0d2e814b54a0b4eb10381c52a1a"
  },
  {
    "name": "原爆死没者慰霊碑",
    "lat": 34.0638614,
    "lng": 133.0085206,
    "category": "memorial",
    "place_id": "1e6d3fb8c1403dd4b52d1473f0123548c29329f0"
  },
  {
    "name": "吹揚神社",
    "lat": 34.0645835,
    "lng": 133.0081515,
    "category": "memorial",
    "place_id": "c276cdf49498102d407b6c5be593c78baf3fb877"
  },
  {
    "name": "藤堂高虎像",
    "lat": 34.0639154,
    "lng": 133.0070761,
    "category": "memorial",
    "place_id": "cac8c5beffe5509691bb3de993580dfe0b0747f7"
  },
  {
    "name": "忠魂碑",
    "lat": 33.5099141,
    "lng": 132.5411536,
    "category": "memorial",
    "place_id": "abd602a5eb3e41239611546085c57c00b7563c7c"
  },
  {
    "name": "日露戦役記念",
    "lat": 33.5094083,
    "lng": 132.5419506,
    "category": "memorial",
    "place_id": "79552b1682a50e8572d3de08b2a3f3497cf8596e"
  },
  {
    "name": "紀元二千六百年記念",
    "lat": 33.5095109,
    "lng": 132.5418331,
    "category": "memorial",
    "place_id": "b6f5a5772ecbc3edca0ebab3c9a46096f3b7c10c"
  },
  {
    "name": "大洲城下台所",
    "lat": 33.5087363,
    "lng": 132.5413614,
    "category": "memorial",
    "place_id": "f91c25920860200ff0cc79e96be0ac13b6aada25"
  },
  {
    "name": "近江商人中江藤樹先生",
    "lat": 33.5092907,
    "lng": 132.5402794,
    "category": "memorial",
    "place_id": "a3c0fd29989262ce482f97d34ce9affce6867a9c"
  },
  {
    "name": "重要文化財　大洲城三の丸南隅櫓",
    "lat": 33.5068197,
    "lng": 132.5408055,
    "category": "memorial",
    "place_id": "b0d9e97e382145cc7404bfe49e0702d9664a3dd9"
  },
  {
    "name": "重要文化財　大洲城苧綿櫓",
    "lat": 33.5085593,
    "lng": 132.5425263,
    "category": "memorial",
    "place_id": "4efa4c6f775fd50ab03d8ae13801de98a0428dae"
  },
  {
    "name": "宇和島城",
    "lat": 33.2197307,
    "lng": 132.5646624,
    "category": "memorial",
    "place_id": "f26a5842b511f5559d1b54698bd424a4f855446d"
  },
  {
    "name": "中井コッフ歌碑",
    "lat": 33.2208723,
    "lng": 132.5634715,
    "category": "memorial",
    "place_id": "f7e9562e2922e93bd17ee6df865a123dfe67a214"
  },
  {
    "name": "児島惟謙先生",
    "lat": 33.2181083,
    "lng": 132.5642795,
    "category": "memorial",
    "place_id": "fd443c020ff6865875fd353e50e138dfa10f7bbf"
  },
  {
    "name": "水準点",
    "lat": 33.2185412,
    "lng": 132.5643944,
    "category": "boundary_stone",
    "place_id": "e27bdd1e3474448d3c6fd986fab0a00e2022705c"
  },
  {
    "name": "重要文化財 紫竹門東塀",
    "lat": 33.8452421,
    "lng": 132.7657474,
    "category": "attraction",
    "place_id": "a66b47a7632d2306b3fb74e94097fec3db3e2769"
  },
  {
    "name": "プラスチック杭",
    "lat": 33.8452248,
    "lng": 132.7654754,
    "category": "boundary_stone",
    "place_id": "db85424a74e87d482e3fb981e96621a78c46df9a"
  },
  {
    "name": "三所神社",
    "lat": 33.8825193,
    "lng": 133.9339522,
    "category": "place_of_worship",
    "place_id": "00e170f6fec5acf75f490072db03e06087be21db"
  },
  {
    "name": "Nagaoka-ke",
    "lat": 33.8810668,
    "lng": 133.9341196,
    "category": "museum",
    "place_id": "58d7dc0ae6404518f0e541d89a60ebf00a5b2e21"
  },
  {
    "name": "東祖谷歴史民俗資料館",
    "lat": 33.8681591,
    "lng": 133.906376,
    "category": "museum",
    "place_id": "f77c2d974e07a5c93226cdb7e7c0d11573a10f89"
  },
  {
    "name": "かかしの里",
    "lat": 33.8553661,
    "lng": 134.020489,
    "category": "attraction",
    "place_id": "bb4b9884d12e8177898f1f8072515ee611e25983"
  },
  {
    "name": "国史跡 徳島城跡",
    "lat": 34.0720736,
    "lng": 134.5566684,
    "category": "memorial",
    "place_id": "a394dce1dec224996d6134bb22bd81ceca3afb14"
  },
  {
    "name": "日枝神社",
    "lat": 34.1653124,
    "lng": 133.7301043,
    "category": "place_of_worship",
    "place_id": "73843236dd8fb28c7d1e4f0da7f01d7d8099357d"
  },
  {
    "name": "威徳院",
    "lat": 34.1706768,
    "lng": 133.7218086,
    "category": "place_of_worship",
    "place_id": "bfcbd6e6d05491396929c61e4e6b66df9462717c"
  },
  {
    "name": "徳島市非核平和都市宣言",
    "lat": 34.0696233,
    "lng": 134.5543816,
    "category": "memorial",
    "place_id": "0a663a61c07a2bff9e5e07b1d025b6a4b5846a2f"
  },
  {
    "name": "徳島慶應義塾跡",
    "lat": 34.06598,
    "lng": 134.5597425,
    "category": "memorial",
    "place_id": "ee35fb781bfb0f876b434970c1c1f1638b542a1d"
  },
  {
    "name": "徳島インマヌエル教会",
    "lat": 34.0683362,
    "lng": 134.5536815,
    "category": "place_of_worship",
    "place_id": "c2537bd21f855bcf96ecbb887b3bb2827d1c90e7"
  },
  {
    "name": "モラエス像",
    "lat": 34.0680933,
    "lng": 134.5460912,
    "category": "memorial",
    "place_id": "fa4bf1239f8dd18b34cb07fd5126c4ea6fe443ae"
  },
  {
    "name": "ICCHORA",
    "lat": 34.070651,
    "lng": 134.5495368,
    "category": "memorial",
    "place_id": "50b074134537fa12c6defccd25f8a687182bc001"
  },
  {
    "name": "狸像",
    "lat": 34.0718923,
    "lng": 134.5490233,
    "category": "memorial",
    "place_id": "0a3048f8af3ffadb65cc4da57d101f9f07da3437"
  },
  {
    "name": "野上彰詩碑",
    "lat": 34.0717698,
    "lng": 134.5479399,
    "category": "memorial",
    "place_id": "25d85cd5cb1285a33d493bf4d3ad709ed8e76ba1"
  },
  {
    "name": "中岡慎太郎像",
    "lat": 33.2457408,
    "lng": 134.1762528,
    "category": "memorial",
    "place_id": "fa26223d60c86fc78df0ca044844a30fae0cc85f"
  },
  {
    "name": "日本聖公会徳島聖テモテ教会",
    "lat": 34.0761141,
    "lng": 134.5323588,
    "category": "place_of_worship",
    "place_id": "724e9398dc86d057c0872d604b45f85634cfe416"
  },
  {
    "name": "徳島県立徳島中学校跡",
    "lat": 34.0662863,
    "lng": 134.5580677,
    "category": "memorial",
    "place_id": "0e18f5872b744afce26644a504b42367efaccf0e"
  },
  {
    "name": "赤の空 (三木健司)",
    "lat": 34.0744341,
    "lng": 134.5466433,
    "category": "memorial",
    "place_id": "420cd790ef354fe45ee8152778c7e794c0b1e517"
  },
  {
    "name": "希望",
    "lat": 34.074542,
    "lng": 134.546922,
    "category": "memorial",
    "place_id": "f14c3103a9cc971a6c1fde496eafc9c61954e540"
  },
  {
    "name": "海蝕痕",
    "lat": 34.0764592,
    "lng": 134.5561033,
    "category": "memorial",
    "place_id": "2c843ad99cb4887a1540fd0f104dfae70dd79ba2"
  },
  {
    "name": "お初大明神",
    "lat": 34.0770388,
    "lng": 134.5461254,
    "category": "place_of_worship",
    "place_id": "4de81f02dfba2058c2bf108bdefc37e125d618a6"
  },
  {
    "name": "ほうろく大明神",
    "lat": 34.0655927,
    "lng": 134.5439706,
    "category": "place_of_worship",
    "place_id": "eae4ff0ed2d8d53e63ea1172c0fff24c0a0b2183"
  },
  {
    "name": "斎藤徳蔵創業記念碑",
    "lat": 34.0670722,
    "lng": 134.5472565,
    "category": "memorial",
    "place_id": "9b7ca38aee07a30f72af28962b0d5ba208b77d76"
  },
  {
    "name": "井利大明神",
    "lat": 34.0680965,
    "lng": 134.5489865,
    "category": "place_of_worship",
    "place_id": "e02cc05864d4496ddecc59ef8c1ebfb326bcd9c0"
  },
  {
    "name": "耳切れ大明神",
    "lat": 34.0710937,
    "lng": 134.551485,
    "category": "place_of_worship",
    "place_id": "febe59f8bafa39147065139ba3d355e48474aad3"
  },
  {
    "name": "海野十三文学碑",
    "lat": 34.0757527,
    "lng": 134.5567075,
    "category": "memorial",
    "place_id": "ad152beca62e8e1545e8d9ee50a8ac883d6ee272"
  },
  {
    "name": "飛翔",
    "lat": 34.0708212,
    "lng": 134.5564945,
    "category": "memorial",
    "place_id": "6bc46683f8670bb16c526717be1f07319b4db07b"
  },
  {
    "name": "母子像",
    "lat": 34.0646795,
    "lng": 134.5599437,
    "category": "memorial",
    "place_id": "8e7d9ae6ec38794339ee79fccf2c7e3ab56cb0ab"
  },
  {
    "name": "お芳大明神",
    "lat": 34.0663915,
    "lng": 134.5492786,
    "category": "place_of_worship",
    "place_id": "a46d44245c565d2c6fa46b5acb5f77565a3c34c0"
  },
  {
    "name": "お笠大名神",
    "lat": 34.074464,
    "lng": 134.542773,
    "category": "place_of_worship",
    "place_id": "af41596ad38760c1992342387f19d188bfa498d4"
  },
  {
    "name": "宇宙時計",
    "lat": 34.067059,
    "lng": 134.5600627,
    "category": "memorial",
    "place_id": "56bbaabb2ee343997b152148c8cc80e8f206feaa"
  },
  {
    "name": "木野山神社",
    "lat": 33.9037397,
    "lng": 132.7794495,
    "category": "place_of_worship",
    "place_id": "55bf175619bbeda55c7b2470620f4ce669a84151"
  },
  {
    "name": "龍馬神社",
    "lat": 33.4571737,
    "lng": 133.27235,
    "category": "place_of_worship",
    "place_id": "54dfa71cb0c1f6ce80c512c02ca27b4574f20d02"
  },
  {
    "name": "十二所神社",
    "lat": 33.4903321,
    "lng": 133.3806972,
    "category": "place_of_worship",
    "place_id": "dcc04933d0e831709565c2596482941b6a379ad7"
  },
  {
    "name": "第35番札所 清滝寺",
    "lat": 33.5124748,
    "lng": 133.409532,
    "category": "place_of_worship",
    "place_id": "024345c8746d3f8f9daddea962722b3f9b3f0fdf"
  },
  {
    "name": "安徳天皇陵参考地",
    "lat": 33.5357687,
    "lng": 133.2014633,
    "category": "attraction",
    "place_id": "9cffa9ceab1f743f883faa137c052f9482fb4cb9"
  },
  {
    "name": "杉原神社",
    "lat": 33.5365953,
    "lng": 133.2090804,
    "category": "place_of_worship",
    "place_id": "b2e171031b31617c5a6d6d31887ab23da7d135dc"
  },
  {
    "name": "鎌井田放水口",
    "lat": 33.5697281,
    "lng": 133.2360735,
    "category": "attraction",
    "place_id": "4f6b01e63c37ec9c07f1db799cbf2c7253e9443c"
  },
  {
    "name": "馬鹿だめし",
    "lat": 33.5346512,
    "lng": 133.2025544,
    "category": "attraction",
    "place_id": "8989a59a93c9b00afa1536c3f17030cb24177ce8"
  },
  {
    "name": "日抱神社",
    "lat": 34.2808262,
    "lng": 133.9704574,
    "category": "place_of_worship",
    "place_id": "d97a73c3ad203a48e22b2260d0eaba797abe93ec"
  },
  {
    "name": "谷地穴地蔵",
    "lat": 33.48478,
    "lng": 133.3327811,
    "category": "place_of_worship",
    "place_id": "74c3d02721b14952e3f895871c3b5d52dc82b7d3"
  },
  {
    "name": "釜神社",
    "lat": 33.8119295,
    "lng": 134.5136057,
    "category": "place_of_worship",
    "place_id": "b0b1c2c656c176abdcb306275a6988cd86cb902e"
  },
  {
    "name": "宗安寺",
    "lat": 33.5713181,
    "lng": 133.478385,
    "category": "place_of_worship",
    "place_id": "e23c58808fc45d4f5f3324cea48483be3b54917b"
  },
  {
    "name": "石鎚神社",
    "lat": 33.4677051,
    "lng": 133.4043006,
    "category": "place_of_worship",
    "place_id": "1da215176c655bb23abf7b945d4426fe63a8c966"
  },
  {
    "name": "開通記念碑",
    "lat": 33.4777173,
    "lng": 133.3687642,
    "category": "memorial",
    "place_id": "2be67682cbd1124f2097a95bbcb85719037664f8"
  },
  {
    "name": "青龍寺奥の院",
    "lat": 33.4233721,
    "lng": 133.4551044,
    "category": "place_of_worship",
    "place_id": "8572b441b4f05806342d9d4db163a6905436cc1b"
  },
  {
    "name": "くじらの駅（ホエールウォッチング宇佐）",
    "lat": 33.4500708,
    "lng": 133.4515053,
    "category": "attraction",
    "place_id": "869f8d3859e14b58e9b7e67b83663a5018c5be10"
  },
  {
    "name": "登り窯跡",
    "lat": 33.7369006,
    "lng": 132.7903604,
    "category": "yes",
    "place_id": "f8c6698c81eb2ca633c251efb93b9aa6b3c863a6"
  },
  {
    "name": "大山祇神社",
    "lat": 33.8089631,
    "lng": 132.7841448,
    "category": "place_of_worship",
    "place_id": "93d876169dd185dcd51834584eba4b7fe526e8b2"
  },
  {
    "name": "桂浜公園",
    "lat": 33.4976376,
    "lng": 133.5744242,
    "category": "attraction",
    "place_id": "0668d3d885e4bb9d04286df7b88c7b3e623eaa31"
  },
  {
    "name": "若宮八幡宮",
    "lat": 33.494949,
    "lng": 133.5437238,
    "category": "place_of_worship",
    "place_id": "175317578008e5aa677b32181697e1d6e69307cd"
  },
  {
    "name": "長宗我部元親初陣の像",
    "lat": 33.4930694,
    "lng": 133.5463037,
    "category": "memorial",
    "place_id": "b583eede58168da9e436d8f128b217fa9c0e1e70"
  },
  {
    "name": "椙本神社",
    "lat": 33.5506495,
    "lng": 133.4210396,
    "category": "place_of_worship",
    "place_id": "19b01f704b919e457654e0b0892affdd75205fd2"
  },
  {
    "name": "水波権現",
    "lat": 33.9441178,
    "lng": 133.5423389,
    "category": "place_of_worship",
    "place_id": "cf3f88aac833dc1c2ea52376a212b9790689ed26"
  },
  {
    "name": "土釜神社",
    "lat": 34.0206522,
    "lng": 133.6475188,
    "category": "place_of_worship",
    "place_id": "b44913f2c9522beb9a9a5894be47a2b253162cae"
  },
  {
    "name": "下谷八幡宮 上の宮",
    "lat": 34.020013,
    "lng": 133.6548244,
    "category": "place_of_worship",
    "place_id": "ecfe751c1a3bf6205b25f78fc608ca5e9fbf1083"
  },
  {
    "name": "下谷八幡宮 下の宮",
    "lat": 34.0172307,
    "lng": 133.6569762,
    "category": "place_of_worship",
    "place_id": "d359a46ed286451f3bf0ccd6db0ed3f9fd8eeb3c"
  },
  {
    "name": "京柱茶屋",
    "lat": 33.8238877,
    "lng": 133.8617075,
    "category": "attraction",
    "place_id": "c3f68242202b88ceb2958b4153fe712cdf86f32d"
  },
  {
    "name": "豊受神社奥社",
    "lat": 33.9276356,
    "lng": 133.4799617,
    "category": "place_of_worship",
    "place_id": "dd767492c364bbe36bc072ac5e36ee09c4a355e8"
  },
  {
    "name": "松尾城址",
    "lat": 33.9620407,
    "lng": 133.5443687,
    "category": "archaeological_site",
    "place_id": "38f2ff0fd5ff2c0d6328c217b6e13e0f6c2733df"
  },
  {
    "name": "Ebisu Shrine",
    "lat": 33.2247378,
    "lng": 132.5323154,
    "category": "place_of_worship",
    "place_id": "fc654e107aab957ea0fd63d138097e50290a9650"
  },
  {
    "name": "Ganjoji",
    "lat": 33.2335136,
    "lng": 132.5262056,
    "category": "place_of_worship",
    "place_id": "7dbf7da37f5f73b5075570020eaa02699a842aff"
  },
  {
    "name": "Honkoji",
    "lat": 33.2242163,
    "lng": 132.5226734,
    "category": "place_of_worship",
    "place_id": "cab49616c83ca0095b9b2b1f219b92a150e54f02"
  },
  {
    "name": "Jorakuji",
    "lat": 33.2238691,
    "lng": 132.5277006,
    "category": "place_of_worship",
    "place_id": "7bea99338b1bbabb336d6e6758019f83ca417609"
  },
  {
    "name": "Shirao Shrine",
    "lat": 33.2238919,
    "lng": 132.5273762,
    "category": "place_of_worship",
    "place_id": "a5baee52d609b4eb77338c459a8ef071e1b0f67a"
  },
  {
    "name": "Sumiyoshi Shrine",
    "lat": 33.2222543,
    "lng": 132.5217598,
    "category": "place_of_worship",
    "place_id": "cd299ea5d28b5d378c86e605845af55a48fe0101"
  },
  {
    "name": "Tenman Shrine",
    "lat": 33.2257665,
    "lng": 132.528435,
    "category": "place_of_worship",
    "place_id": "f3bb704abb494aeec51e93a1a66e9f38d9a84276"
  },
  {
    "name": "別格6番 臨海山龍光院",
    "lat": 33.2249875,
    "lng": 132.5692336,
    "category": "place_of_worship",
    "place_id": "ea0f3e15567e5417a6c424c5e9eb46e1dde44e15"
  },
  {
    "name": "歓喜間符",
    "lat": 33.8616154,
    "lng": 133.3266967,
    "category": "yes",
    "place_id": "325beb803473eabed6e2a5151d56b64168390bc7"
  },
  {
    "name": "住友別子病院跡",
    "lat": 33.8591442,
    "lng": 133.3274691,
    "category": "yes",
    "place_id": "e6808d83e6166c633dc0589e372435712acd76cf"
  },
  {
    "name": "歓東間符",
    "lat": 33.8614668,
    "lng": 133.3266886,
    "category": "yes",
    "place_id": "6f6ef835d2c352db5c99f42a708b571b70c7ee5b"
  },
  {
    "name": "蘭塔場跡",
    "lat": 33.8592724,
    "lng": 133.3261519,
    "category": "yes",
    "place_id": "94644163255faff3ae4e8206e101d32280554ea3"
  },
  {
    "name": "露頭",
    "lat": 33.8615951,
    "lng": 133.3232411,
    "category": "yes",
    "place_id": "ef307767df714385a91471e0d3653c57eaa7275c"
  },
  {
    "name": "第一通洞跡",
    "lat": 33.865831,
    "lng": 133.3256307,
    "category": "yes",
    "place_id": "bdaa1fd52bad5df7d9b9003ee359536a3a554894"
  },
  {
    "name": "ダイヤモンド水",
    "lat": 33.8542703,
    "lng": 133.3328086,
    "category": "yes",
    "place_id": "aa71c30c8bd36fd83155ed9cc0cbaca57abaedfd"
  },
  {
    "name": "暗渠跡",
    "lat": 33.8553872,
    "lng": 133.3347552,
    "category": "yes",
    "place_id": "5ad92944402958c9098ad7eb68cda470a31879ef"
  },
  {
    "name": "円通寺小足谷出張所跡",
    "lat": 33.8527302,
    "lng": 133.3447924,
    "category": "yes",
    "place_id": "6675bfd7b7d72f6e9a4c61e8c7c4cf170e238374"
  },
  {
    "name": "小足谷接待館跡",
    "lat": 33.8547961,
    "lng": 133.340442,
    "category": "yes",
    "place_id": "b8940d09c8870d089f5134b09ea0d0640a09667a"
  },
  {
    "name": "小足谷収銅所跡",
    "lat": 33.8540049,
    "lng": 133.3396014,
    "category": "yes",
    "place_id": "e3f0150cd04f2c3835811bec6f2426d900d2c90f"
  },
  {
    "name": "小足谷醸造場跡",
    "lat": 33.8547806,
    "lng": 133.3411332,
    "category": "yes",
    "place_id": "402a6fc8659d8072ad4aaa9bd20f476c58ad213a"
  },
  {
    "name": "小足谷小学校跡",
    "lat": 33.8550132,
    "lng": 133.3376774,
    "category": "yes",
    "place_id": "edd7eec76493eda4ccc17a3a0a361203d38f3da9"
  },
  {
    "name": "小足谷劇場跡",
    "lat": 33.8550908,
    "lng": 133.3369676,
    "category": "yes",
    "place_id": "0448c535d4677de45cd2f8e9a5a0cc4d0b6a51e1"
  },
  {
    "name": "高橋製錬所跡",
    "lat": 33.8557113,
    "lng": 133.3330261,
    "category": "yes",
    "place_id": "18f999ee15f7280c71cf3fff805abf89938c5be7"
  },
  {
    "name": "大山積神社跡",
    "lat": 33.8583323,
    "lng": 133.3261868,
    "category": "yes",
    "place_id": "cad189fe38e15d1a7fe639ef25ac448de00a0973"
  },
  {
    "name": "木方焼鉱窯跡",
    "lat": 33.8580267,
    "lng": 133.3290465,
    "category": "yes",
    "place_id": "f234874f7c2edfd1b61d25545b9b89e99d60f9f5"
  },
  {
    "name": "木方部落跡",
    "lat": 33.8581913,
    "lng": 133.3277441,
    "category": "yes",
    "place_id": "3de4f66051b87c29e0b03a8486d5329b1254ff88"
  },
  {
    "name": "室戸世界ジオパークセンター",
    "lat": 33.2992155,
    "lng": 134.1865065,
    "category": "museum",
    "place_id": "ffa478c24659f167a1377bbdf9b19d16be8925a5"
  },
  {
    "name": "四万十川源流之碑",
    "lat": 33.4414352,
    "lng": 133.0723001,
    "category": "memorial",
    "place_id": "f0c622fa76324264f9857147b2be08218476da6a"
  },
  {
    "name": "Taga Shrine",
    "lat": 33.2287525,
    "lng": 132.5616451,
    "category": "place_of_worship",
    "place_id": "df8e2a6de0f2317c7aa93fb001a131618a30bc89"
  },
  {
    "name": "總東風神社",
    "lat": 33.8422947,
    "lng": 132.8976733,
    "category": "place_of_worship",
    "place_id": "c6905b1ae7a3e1edefb06429e7067c3b859bb87f"
  },
  {
    "name": "旭丸峠完工之碑",
    "lat": 33.9333423,
    "lng": 134.3243307,
    "category": "memorial",
    "place_id": "3ce78a527a7b3b8ba1e89c7f1b4a2d162ff2c84f"
  },
  {
    "name": "悲願寺",
    "lat": 33.947167,
    "lng": 134.327993,
    "category": "place_of_worship",
    "place_id": "0656980199e717b3e11f8b782c421493159ed31d"
  },
  {
    "name": "浜弁天",
    "lat": 34.3337099,
    "lng": 134.0791549,
    "category": "place_of_worship",
    "place_id": "794cd4628688380918c36da8b521fe46a1571ced"
  },
  {
    "name": "善法寺",
    "lat": 33.9821059,
    "lng": 133.5607378,
    "category": "place_of_worship",
    "place_id": "8cfc2a3b2c1757de6b31248a8027428bb4ccf8ed"
  },
  {
    "name": "荒多大明神",
    "lat": 34.3947494,
    "lng": 134.0444605,
    "category": "place_of_worship",
    "place_id": "824cd32dba3425f33b69c20bbf9d28b103b03cce"
  },
  {
    "name": "福德宮",
    "lat": 34.3912968,
    "lng": 134.0528646,
    "category": "place_of_worship",
    "place_id": "8d32254f5a2ec272671ebf9bacdcc65cc34cd9a3"
  },
  {
    "name": "shisho shrine",
    "lat": 34.0369329,
    "lng": 133.7838406,
    "category": "place_of_worship",
    "place_id": "52aedcd04374dedf6f44fdb31b1a2e16fce22389"
  },
  {
    "name": "第28番札所 大日寺",
    "lat": 33.5776597,
    "lng": 133.7051958,
    "category": "place_of_worship",
    "place_id": "8706713b0ab2814599a4b79ab59f770a263d9fc0"
  },
  {
    "name": "第29番札所 土佐国分寺",
    "lat": 33.5987846,
    "lng": 133.6404629,
    "category": "place_of_worship",
    "place_id": "303eab37e4e8c46ee777777ee04a3891d3729a48"
  },
  {
    "name": "第37番札所 岩本寺",
    "lat": 33.2080031,
    "lng": 133.1346448,
    "category": "place_of_worship",
    "place_id": "884b03f174a982189304e83d1c032d5fd634e110"
  },
  {
    "name": "第39番札所 延光寺",
    "lat": 32.9613141,
    "lng": 132.7740727,
    "category": "place_of_worship",
    "place_id": "4b891de230098e402eb207b41c6e70184309e2a7"
  },
  {
    "name": "第45番札所 岩屋寺",
    "lat": 33.6587706,
    "lng": 132.9808992,
    "category": "place_of_worship",
    "place_id": "078ea90c396de64bb1569a31ed73643d65821a7a"
  },
  {
    "name": "第44番札所 大宝寺 (Daihō-ji)",
    "lat": 33.6612356,
    "lng": 132.9115866,
    "category": "place_of_worship",
    "place_id": "2fafc12ce74d6202211b503322839cfe8a194844"
  },
  {
    "name": "第59番札所 伊予国分寺",
    "lat": 34.0261394,
    "lng": 133.0255592,
    "category": "place_of_worship",
    "place_id": "9ae1675e7182b58edebb40f4a0c5e9f6f257288c"
  },
  {
    "name": "延命寺 (Enmei-ji)",
    "lat": 34.0668412,
    "lng": 132.9639973,
    "category": "place_of_worship",
    "place_id": "eda53ba09a666288fa362f4c8c5bd3a755f67ac4"
  },
  {
    "name": "南光坊 (Nankōbō)",
    "lat": 34.0682265,
    "lng": 132.9953058,
    "category": "place_of_worship",
    "place_id": "a18bfc49fdcf8fdd44bfb3329ec1fb95c19f4386"
  },
  {
    "name": "栄福寺 (Eifuku-ji)",
    "lat": 34.0297812,
    "lng": 132.9781846,
    "category": "place_of_worship",
    "place_id": "666609deefcff5710a1a83d6e7b79a7e2c739d82"
  },
  {
    "name": "仙遊寺 (Senyū-ji)",
    "lat": 34.0132837,
    "lng": 132.9773496,
    "category": "place_of_worship",
    "place_id": "7390d925647b9799538b42deeb45a2b9cc150e72"
  },
  {
    "name": "第74番札所 甲山寺 (Kōyama-ji)",
    "lat": 34.2330662,
    "lng": 133.7657237,
    "category": "place_of_worship",
    "place_id": "51371eda691776f8f9168570179ea49e74eb95a3"
  },
  {
    "name": "バンビーズ天山",
    "lat": 33.8241164,
    "lng": 132.7801253,
    "category": "attraction",
    "place_id": "9ebef32bc5ca5e2b58f870807bb0d3dab10ec752"
  },
  {
    "name": "妙見宮",
    "lat": 34.218364,
    "lng": 133.6449423,
    "category": "place_of_worship",
    "place_id": "f40aa4970286e3a137c9fe1b0e72a455f82ea4a2"
  },
  {
    "name": "津峯神社",
    "lat": 33.8947325,
    "lng": 134.6436111,
    "category": "place_of_worship",
    "place_id": "6d898b5c8cae883f3f1a71e0a6e198d4fd0eb6b1"
  },
  {
    "name": "滝宮神社",
    "lat": 34.1348084,
    "lng": 133.5294945,
    "category": "place_of_worship",
    "place_id": "6a8604d0587f44aee80c1d3fdd31b1d59b464d0f"
  },
  {
    "name": "天満宮",
    "lat": 34.1292796,
    "lng": 133.5367044,
    "category": "place_of_worship",
    "place_id": "5f980c0b789c45240dedd0d134c6549dfea6a485"
  },
  {
    "name": "丸山浦島神社",
    "lat": 34.2205516,
    "lng": 133.6100908,
    "category": "place_of_worship",
    "place_id": "f441a6a97d5cb9b76e17d8fc91c89697e259def9"
  },
  {
    "name": "利益院",
    "lat": 34.2712454,
    "lng": 133.6807178,
    "category": "place_of_worship",
    "place_id": "7df1db165afa213938b0a70a0769b594d53420d6"
  },
  {
    "name": "八幡神社",
    "lat": 34.2682426,
    "lng": 133.6780588,
    "category": "place_of_worship",
    "place_id": "02324b6c9b69d021ff57330226ebdc06727478c0"
  },
  {
    "name": "梵音寺",
    "lat": 34.2676199,
    "lng": 133.6298857,
    "category": "place_of_worship",
    "place_id": "424c1407b9199cdfe3047b316c48433aa5fc464f"
  },
  {
    "name": "妙見宮",
    "lat": 34.2692068,
    "lng": 133.6297223,
    "category": "place_of_worship",
    "place_id": "190a73f037cb869da8240611635ee3025f354cf7"
  },
  {
    "name": "粟島神社",
    "lat": 34.2722706,
    "lng": 133.6307436,
    "category": "place_of_worship",
    "place_id": "cd53e872adc237faaa7df70b8f1eaf6e805cb976"
  },
  {
    "name": "荒神神社",
    "lat": 34.2760896,
    "lng": 133.6521419,
    "category": "place_of_worship",
    "place_id": "085783d65a16c98ec7d3a6ac6298803fba37266c"
  },
  {
    "name": "恵比須神社",
    "lat": 34.2792063,
    "lng": 133.6517015,
    "category": "place_of_worship",
    "place_id": "2ac57763b858004fd230320e8adad427651dab09"
  },
  {
    "name": "八幡神社",
    "lat": 34.3380936,
    "lng": 133.6297477,
    "category": "place_of_worship",
    "place_id": "3ba76f2a5188d35305addf7b28d02aa81f4da51b"
  },
  {
    "name": "出釈迦寺奥の院",
    "lat": 34.2128033,
    "lng": 133.7521063,
    "category": "place_of_worship",
    "place_id": "7a90e0b933dcdc3d084fbbe1d43cce5b38576cc5"
  },
  {
    "name": "愛媛大学ミュージアム",
    "lat": 33.8499023,
    "lng": 132.7714711,
    "category": "museum",
    "place_id": "b0b1d56146875d6d5332546b88c8bf50d17d13e5"
  },
  {
    "name": "三崎神社",
    "lat": 34.2618398,
    "lng": 133.5604338,
    "category": "place_of_worship",
    "place_id": "75040ab34fbf8e448b6ea129590950cb87b8b61d"
  },
  {
    "name": "荒魂神社",
    "lat": 34.2106103,
    "lng": 133.6872892,
    "category": "place_of_worship",
    "place_id": "9e33b91f0ea29be07dcda40431035e0e17dc84ec"
  },
  {
    "name": "金山神社",
    "lat": 34.2048119,
    "lng": 133.8872508,
    "category": "place_of_worship",
    "place_id": "6d108582148c747103b8874d94e2666ee488dfd1"
  },
  {
    "name": "Takami Hachiman Shrine",
    "lat": 34.3068203,
    "lng": 133.67818,
    "category": "place_of_worship",
    "place_id": "d28b4cc64b08161c39ec50cb6082c9a6e593de8b"
  },